time,altitude,pitch,roll,yaw,lat,lon,speed,acceleration,temperature,vibrations,landing_force,batt_check,igniter_check,gps_check,Pression
0.01,0.001,,0,4,46.7819152,-71.27958496,0.291,29.119,13.082,1.31,,0,0,0,978.651
0.02,0.01,,0,4,46.7819152,-71.27958495,1.36,106.89,13.082,2.073,,0,0,0,978.65
0.03,0.031,,0,4,46.7819152,-71.27958493,2.874,151.455,13.082,3.375,,0,0,0,978.648
0.04,0.067,,0,4,46.7819152,-71.2795849,4.348,147.502,13.082,1.587,,0,0,0,978.644
0.05,0.118,,0,4,46.7819152,-71.27958486,5.779,143.151,13.082,6.306,,0,0,0,978.638
0.06,0.182,,0,4,46.7819152,-71.27958479,7.19,141.183,13.081,6.462,,0,0,0,978.63
0.07,0.261,,0,4,46.7819152,-71.27958473,8.599,140.856,13.081,5.823,,0,0,0,978.621
0.08,0.354,,0,4,46.7819152,-71.27958463,10.003,140.529,13.08,9.197,,0,0,0,978.61
0.09,0.461,,0,4,46.7819152,-71.27958454,11.405,140.201,13.08,9.546,,0,0,0,978.597
0.1,0.582,,0,4,46.78191521,-71.27958442,12.803,139.871,13.079,1.236,,0,0,0,978.583
0.11,0.718,,0,4,46.78191521,-71.27958431,14.198,139.541,13.078,8.486,,0,0,0,978.567
0.12,0.866,,0,4,46.78191521,-71.27958416,15.592,139.51,13.077,7.913,,0,0,0,978.55
0.13,1.029,,0,4,46.78191521,-71.27958402,16.991,139.914,13.076,8.682,,0,0,0,978.531
0.14,1.206,,0,4,46.78191521,-71.27958386,18.394,140.322,13.075,7.14,,0,0,0,978.51
0.15,1.397,,0,4,46.78191521,-71.27958368,19.801,140.73,13.073,9.438,,0,0,0,978.488
0.16,1.602,,0,4,46.78191521,-71.27958349,21.211,141.138,13.072,6.75,,0,0,0,978.464
0.17,1.822,,0,4,46.78191521,-71.2795833,22.626,141.546,13.071,2.034,,0,0,0,978.438
0.18,2.055,,0,4,46.78191521,-71.27958308,24.045,141.954,13.069,9.737,,0,0,0,978.41
0.19,2.302,,0,4,46.78191522,-71.27958285,25.469,142.362,13.068,5.11,,0,0,0,978.381
0.2,2.564,,0,4,46.78191522,-71.27958262,26.896,142.77,13.066,5.509,,0,0,0,978.351
0.21,2.84,,0,4,46.78191522,-71.27958235,28.327,143.178,13.064,0.998,,0,0,0,978.318
0.22,3.131,,0,4,46.78191522,-71.27958209,29.762,143.586,13.062,1.04,,0,0,0,978.284
0.23,3.436,,0,4,46.78191522,-71.27958182,31.202,143.994,13.06,3.227,,0,0,0,978.249
0.24,3.755,,0,4,46.78191523,-71.27958152,32.645,144.402,13.058,8.84,,0,0,0,978.211
0.25,4.089,,0,4,46.78191523,-71.27958122,34.093,144.81,13.056,8.722,,0,0,0,978.172
0.26,4.437,,0,4,46.78191523,-71.2795809,35.545,145.219,13.054,6.832,,0,0,0,978.131
0.27,4.799,,0,4,46.78191523,-71.27958056,37,145.627,13.051,8.35,,0,0,0,978.089
0.28,5.177,,0,4,46.78191523,-71.27958022,38.46,146.036,13.049,4.649,,0,0,0,978.044
0.29,5.569,,0,4,46.78191524,-71.27957987,39.924,146.444,13.046,4.57,,0,0,0,977.998
0.3,5.975,,0,4,46.78191524,-71.27957949,41.392,146.853,13.044,3.409,,0,0,0,977.951
0.315,6.613,,0,4.001,46.78191524,-71.27957891,43.602,147.374,13.04,1.182,,1,0,0,977.876
0.338,7.631,,0,4.006,46.78191525,-71.27957797,46.933,148.175,13.033,3.828,,1,0,0,977.756
0.371,9.3,,0,4.021,46.78191526,-71.27957644,51.967,149.372,13.022,6.595,,1,0,0,977.561
0.421,12.087,,0,4.064,46.78191528,-71.27957387,59.506,151.058,13.004,3.413,,1,0,0,977.234
0.471,15.253,,0.013,4.135,46.7819153,-71.27957095,67.135,152.831,12.983,0.875,,1,1,1,976.863
0.521,18.802,,0.021,4.237,46.78191532,-71.27956766,74.853,154.586,12.96,5.788,,1,1,1,976.446
0.571,22.74,,0.08,4.37,46.78191534,-71.279564,82.658,156.319,12.935,4.846,,1,1,1,975.984
0.621,27.07,,0.047,4.535,46.78191537,-71.27955992,90.549,158.025,12.907,1.965,,1,1,1,975.477
0.671,31.797,,0.081,4.724,46.7819154,-71.27955543,98.525,159.703,12.876,3.135,,1,1,1,974.922
0.721,36.925,,0.005,4.929,46.78191544,-71.27955047,106.584,161.348,12.842,6.612,,1,1,1,974.321
0.771,42.457,,-0.049,5.142,46.78191547,-71.27954499,114.724,162.957,12.807,3.735,,1,1,1,973.672
0.821,48.399,,-0.049,5.35,46.78191552,-71.27953897,122.945,164.542,12.768,6.026,,1,1,1,972.975
0.871,54.754,,0.208,5.541,46.78191556,-71.27953236,131.244,166.115,12.727,1.928,,1,1,1,972.23
0.921,61.525,,0.248,5.698,46.78191561,-71.27952509,139.623,167.709,12.683,6.197,,1,1,1,971.436
0.971,68.718,,0.329,5.802,46.78191566,-71.27951715,148.105,169.789,12.636,7.386,,1,1,1,970.592
1.021,76.338,,0.321,5.839,46.78191572,-71.27950851,156.701,172.087,12.586,4.121,,1,1,1,969.698
1.071,84.391,,0.496,5.811,46.78191579,-71.27949914,165.41,174.371,12.534,8.05,,1,1,1,968.754
1.121,92.88,,0.533,5.722,46.78191586,-71.27948905,174.16,175.2,12.479,0.228,,1,1,1,967.758
1.171,101.807,,0.844,5.592,46.78191593,-71.27947829,182.92,175.405,12.421,4.961,,1,1,1,966.711
1.221,111.172,,0.638,5.458,46.78191601,-71.27946687,191.689,175.56,12.36,7.904,,1,1,1,965.613
1.271,120.976,,0.89,5.362,46.78191609,-71.27945487,200.448,175.307,12.296,4.89,,1,1,1,964.463
1.321,131.216,,0.951,5.34,46.78191617,-71.27944233,209.185,174.825,12.23,4.706,,1,1,1,963.262
1.371,141.893,,0.938,5.408,46.78191626,-71.27942925,217.895,174.214,12.16,8.746,,1,1,1,962.01
1.421,153.005,,1.198,5.545,46.78191635,-71.27941564,226.57,173.447,12.088,2.44,,1,1,1,960.707
1.471,164.549,,1.749,5.708,46.78191645,-71.27940145,235.204,172.56,12.013,9.596,,1,1,1,959.353
1.521,176.524,,1.677,5.832,46.78191655,-71.27938662,243.791,171.608,11.935,9.124,,1,1,1,957.948
1.571,188.927,,1.728,5.864,46.78191666,-71.27937113,252.33,170.682,11.854,4.022,,1,1,1,956.493
1.621,201.756,,1.444,5.806,46.78191677,-71.27935493,260.8,169.314,11.771,5.923,,1,1,1,954.989
1.671,215.005,,1.71,5.715,46.78191688,-71.27933807,269.179,167.487,11.685,8.234,,1,1,1,953.491
1.721,228.671,,2.249,5.662,46.781917,-71.27932062,277.464,165.488,11.596,1.859,,1,1,1,951.964
1.771,242.749,,2.368,5.685,46.78191713,-71.27930264,285.641,163.188,11.505,0.151,,1,1,1,950.391
1.821,257.233,,2.963,5.759,46.78191725,-71.27928417,293.694,160.537,11.41,5.431,,1,1,1,948.773
1.871,272.116,,3.49,5.823,46.78191738,-71.27926511,301.606,157.559,11.314,5.777,,1,1,1,947.11
1.921,287.39,,3.92,5.842,46.78191752,-71.27924544,309.383,155.437,11.214,8.019,,1,1,1,945.403
1.971,303.052,,4.014,5.818,46.78191766,-71.27922515,317.067,153.665,11.113,2.685,,1,1,1,943.654
2.021,319.095,,5.563,5.781,46.7819178,-71.27920429,324.664,151.857,11.008,7.921,,1,1,1,941.861
2.071,335.516,,5.706,5.78,46.78191795,-71.2791829,332.166,149.83,10.902,0.77,,1,1,1,940.026
2.121,352.309,,6.055,5.852,46.7819181,-71.27916105,339.559,147.528,10.792,2.898,,1,1,1,938.15
2.171,369.469,,7.034,5.937,46.78191825,-71.27913864,346.831,145.093,10.681,6.927,,1,1,1,936.233
2.221,386.99,,8.186,5.938,46.78191841,-71.27911567,353.991,143.003,10.567,6.05,,1,1,1,934.276
2.271,404.866,,9.192,5.864,46.78191857,-71.27909211,361.063,141.317,10.451,9.311,,1,1,1,932.278
2.321,423.094,,10.399,5.84,46.78191874,-71.27906806,368.051,139.505,10.332,9.121,,1,1,1,930.242
2.371,441.669,,10.819,5.931,46.78191891,-71.27904354,374.943,137.529,10.212,7.28,,1,1,1,928.166
2.421,460.586,,11.546,6.022,46.78191908,-71.27901852,381.733,135.56,10.089,7.968,,1,1,1,926.053
2.471,479.84,,12.481,5.981,46.78191925,-71.27899296,388.428,133.746,9.964,2.755,,1,1,1,923.902
2.521,499.428,,13.437,5.869,46.78191943,-71.27896688,395.091,133.1,9.836,3.211,,1,1,1,921.713
2.571,519.35,,13.855,5.857,46.78191962,-71.27894033,401.763,133.166,9.707,7.659,,1,1,1,919.488
2.621,539.605,,14.588,5.944,46.7819198,-71.27891329,408.436,133.207,9.575,1.818,,1,1,1,917.225
2.671,560.193,,15.428,5.983,46.78191999,-71.27888573,415.111,133.28,9.441,0.418,,1,1,1,914.924
2.721,581.116,,16.344,5.944,46.78192018,-71.27885767,421.784,133.274,9.305,2.654,,1,1,1,912.587
2.771,602.344,,17.044,5.91,46.78192038,-71.27882915,427.351,111.091,9.167,3.558,,1,1,1,910.215
2.821,623.763,,17.449,5.929,46.78192058,-71.27880035,429.4,40.872,9.028,2.64,,1,1,1,907.822
2.871,645.224,,17.46,5.977,46.78192078,-71.27877147,429.024,-7.445,8.889,8.604,,1,1,1,905.424
# Burnout
2.921,666.637,,17.935,5.949,46.78192098,-71.27874261,427.51,-30.088,8.749,2.059,,1,1,1,903.032
2.971,687.955,,18.589,5.938,46.78192118,-71.27871384,425.216,-45.636,8.611,9.604,,1,1,1,900.65
2.99,695.919,,18.809,5.941,46.78192125,-71.27870308,424.258,-50.994,8.559,0.477,,1,1,1,899.76
3.018,707.83,,19.115,5.972,46.78192136,-71.27868699,422.787,-52.135,8.482,8.512,,1,1,1,898.445
3.06,725.621,,19.915,5.989,46.78192152,-71.27866296,420.597,-51.688,8.366,9.356,,1,1,1,896.552
3.11,746.586,,20.554,5.968,46.78192173,-71.27863461,418.025,-51.183,8.23,1.387,,1,1,1,894.322
3.16,767.423,,21.443,5.953,46.78192192,-71.2786064,415.479,-50.64,8.094,9.163,,1,1,1,892.106
3.21,788.134,,22.164,5.973,46.78192211,-71.27857834,412.96,-50.092,7.96,4.746,,1,1,1,889.903
3.26,808.72,,22.298,5.997,46.78192231,-71.27855042,410.47,-49.583,7.826,4.449,,1,1,1,887.713
3.31,829.182,,23.117,5.979,46.7819225,-71.27852266,408.002,-49.129,7.693,4.896,,1,1,1,885.536
3.36,849.521,,23.904,5.958,46.78192268,-71.27849504,405.557,-48.638,7.561,7.874,,1,1,1,883.373
3.41,869.738,,24.818,6.01,46.78192288,-71.27846754,403.137,-48.127,7.429,8.824,,1,1,1,881.222
3.46,889.835,,25.441,6.089,46.78192307,-71.27844019,400.744,-47.62,7.299,4.558,,1,1,1,879.085
3.51,909.813,,26.107,6.083,46.78192325,-71.27841298,398.375,-47.143,7.169,0.223,,1,1,1,876.959
3.56,929.673,,27.033,6.025,46.78192344,-71.27838591,396.03,-46.697,7.04,9.323,,1,1,1,874.847
3.61,949.416,,27.759,6.017,46.78192363,-71.27835897,393.706,-46.253,6.911,8.487,,1,1,1,872.747
3.66,969.044,,28.672,6.06,46.78192382,-71.27833215,391.405,-45.769,6.784,1.451,,1,1,1,870.659
3.71,988.557,,29.546,6.084,46.781924,-71.27830546,389.128,-45.309,6.657,8.773,,1,1,1,868.583
3.76,1007.957,,30.363,6.074,46.78192418,-71.27827892,386.873,-44.878,6.531,1.859,,1,1,1,866.52
3.81,1027.245,,30.974,6.079,46.78192437,-71.27825248,384.641,-44.422,6.405,9.469,,1,1,1,864.468
3.86,1046.421,,31.805,6.099,46.78192455,-71.27822619,382.431,-43.993,6.281,4.382,,1,1,1,862.428
3.91,1065.488,,32.464,6.109,46.78192473,-71.27820002,380.241,-43.595,6.157,4.949,,1,1,1,860.4
3.96,1084.446,,33.113,6.102,46.78192491,-71.27817398,378.072,-43.185,6.034,8.1,,1,1,1,858.384
4.01,1103.295,,33.765,6.091,46.78192509,-71.27814804,375.923,-42.759,5.911,5.579,,1,1,1,856.378
4.06,1122.038,,34.508,6.107,46.78192526,-71.27812222,373.795,-42.344,5.789,6.941,,1,1,1,854.385
4.11,1140.675,,35.361,6.137,46.78192545,-71.27809655,371.688,-41.96,5.668,4.997,,1,1,1,852.402
4.16,1159.207,,35.803,6.142,46.78192562,-71.27807097,369.6,-41.595,5.548,8.205,,1,1,1,850.431
4.21,1177.636,,36.443,6.109,46.7819258,-71.27804551,367.528,-41.228,5.428,7.623,,1,1,1,848.471
4.26,1195.961,,37.279,6.078,46.78192598,-71.27802017,365.477,-40.814,5.309,0.121,,1,1,1,846.522
4.31,1214.184,,37.807,6.085,46.78192615,-71.27799494,363.447,-40.391,5.19,7.81,,1,1,1,844.63
4.36,1232.306,,38.189,6.124,46.78192633,-71.27796982,361.437,-40.032,5.073,7.88,,1,1,1,842.796
4.41,1250.328,,38.811,6.15,46.7819265,-71.27794484,359.444,-39.694,4.955,5.64,,1,1,1,840.972
4.46,1268.25,,39.291,6.13,46.78192668,-71.27791994,357.468,-39.34,4.839,5.077,,1,1,1,839.158
4.51,1286.075,,39.772,6.105,46.78192684,-71.27789516,355.51,-38.952,4.723,2.641,,1,1,1,837.354
4.56,1303.802,,40.235,6.133,46.78192702,-71.27787048,353.572,-38.574,4.608,3.116,,1,1,1,835.56
4.61,1321.432,,40.963,6.185,46.78192719,-71.27784592,351.653,-38.234,4.493,5.16,,1,1,1,833.775
4.66,1338.967,,41.194,6.204,46.78192736,-71.27782147,349.749,-37.918,4.379,8.551,,1,1,1,832
4.71,1356.407,,41.81,6.188,46.78192753,-71.27779711,347.861,-37.592,4.266,5.766,,1,1,1,830.235
4.76,1373.754,,42.288,6.174,46.78192769,-71.27777286,345.99,-37.201,4.153,1.056,,1,1,1,828.479
4.81,1391.007,,42.871,6.192,46.78192787,-71.27774871,344.14,-36.816,4.041,5.553,,1,1,1,826.733
4.86,1408.168,,43.41,6.232,46.78192803,-71.27772466,342.309,-36.458,3.929,0.317,,1,1,1,824.996
4.91,1425.238,,44.102,6.262,46.7819282,-71.27770072,340.494,-36.127,3.818,3.164,,1,1,1,823.268
4.96,1442.218,,45.047,6.259,46.78192836,-71.27767689,338.696,-35.798,3.708,6.959,,1,1,1,821.55
5.01,1459.108,,45.516,6.239,46.78192853,-71.27765313,336.914,-35.472,3.598,2.893,,1,1,1,819.84
5.06,1475.909,,46.13,6.219,46.78192869,-71.27762948,335.149,-35.125,3.489,5.453,,1,1,1,818.14
5.11,1492.623,,46.714,6.21,46.78192886,-71.27760594,333.401,-34.808,3.38,3.994,,1,1,1,816.448
5.16,1509.25,,47.3,6.215,46.78192902,-71.27758247,331.668,-34.485,3.272,1.777,,1,1,1,814.765
5.21,1525.79,,47.831,6.226,46.78192919,-71.27755911,329.952,-34.175,3.165,8.392,,1,1,1,813.091
5.26,1542.245,,48.364,6.248,46.78192935,-71.27753584,328.251,-33.894,3.058,7.539,,1,1,1,811.425
5.31,1558.615,,48.881,6.284,46.78192952,-71.27751266,326.562,-33.644,2.951,9.049,,1,1,1,809.769
5.36,1574.902,,49.373,6.305,46.78192967,-71.27748957,324.887,-33.363,2.846,8.566,,1,1,1,808.12
5.41,1591.104,,49.902,6.299,46.78192984,-71.27746658,323.226,-33.074,2.74,3.464,,1,1,1,806.48
5.46,1607.224,,50.485,6.286,46.78192999,-71.27744366,321.58,-32.783,2.636,1.934,,1,1,1,804.849
5.51,1623.263,,50.824,6.289,46.78193016,-71.27742085,319.947,-32.537,2.531,1.673,,1,1,1,803.225
5.56,1639.219,,51.167,6.304,46.78193032,-71.27739812,318.326,-32.314,2.428,6.116,,1,1,1,801.61
5.61,1655.095,,51.607,6.326,46.78193047,-71.27737548,316.716,-32.055,2.324,1.2,,1,1,1,800.003
5.66,1670.891,,52.162,6.346,46.78193064,-71.27735291,315.12,-31.777,2.222,9.261,,1,1,1,798.404
5.71,1686.608,,52.661,6.351,46.78193079,-71.27733043,313.538,-31.517,2.12,8.296,,1,1,1,796.814
5.76,1702.245,,53.161,6.335,46.78193095,-71.27730805,311.968,-31.298,2.018,0.17,,1,1,1,795.231
5.81,1717.805,,53.658,6.311,46.7819311,-71.27728574,310.408,-31.094,1.917,4.749,,1,1,1,793.72
5.86,1733.286,,54.146,6.301,46.78193126,-71.27726351,308.859,-30.868,1.816,0.625,,1,1,1,792.229
5.91,1748.691,,54.685,6.322,46.78193141,-71.27724138,307.321,-30.643,1.716,9.807,,1,1,1,790.747
5.96,1764.018,,55.271,6.362,46.78193157,-71.27721932,305.794,-30.44,1.616,6.623,,1,1,1,789.271
6.01,1779.27,,55.912,6.386,46.78193173,-71.27719734,304.278,-30.21,1.517,7.416,,1,1,1,787.803
6.06,1794.446,,56.402,6.374,46.78193188,-71.27717544,302.773,-29.998,1.419,1.714,,1,1,1,786.343
6.11,1809.548,,56.848,6.344,46.78193203,-71.27715363,301.277,-29.826,1.32,1.664,,1,1,1,784.889
6.16,1824.574,,57.325,6.337,46.78193219,-71.2771319,299.791,-29.633,1.223,1.068,,1,1,1,783.443
6.21,1839.527,,57.833,6.376,46.78193234,-71.27711022,298.315,-29.405,1.126,6.226,,1,1,1,782.003
6.26,1854.406,,58.363,6.438,46.78193249,-71.27708864,296.85,-29.202,1.029,1.691,,1,1,1,780.571
6.31,1869.212,,58.921,6.481,46.78193265,-71.27706713,295.398,-28.866,0.933,6.184,,1,1,1,779.146
6.36,1883.946,,59.544,6.492,46.78193279,-71.27704569,293.963,-28.523,0.837,9.551,,1,1,1,777.728
6.41,1898.609,,60.094,6.49,46.78193295,-71.27702433,292.546,-28.158,0.742,0.668,,1,1,1,776.317
6.46,1913.201,,60.599,6.487,46.7819331,-71.27700304,291.146,-27.829,0.647,3.493,,1,1,1,774.912
6.51,1927.724,,61.243,6.488,46.78193325,-71.27698184,289.762,-27.548,0.552,3.696,,1,1,1,773.514
6.56,1942.177,,61.757,6.503,46.7819334,-71.2769607,288.391,-27.282,0.458,9.461,,1,1,1,772.123
6.61,1956.563,,62.35,6.521,46.78193355,-71.27693962,287.034,-26.999,0.365,4.658,,1,1,1,770.738
6.66,1970.881,,62.835,6.529,46.78193369,-71.2769186,285.692,-26.684,0.272,4.215,,1,1,1,769.36
6.71,1985.132,,63.523,6.531,46.78193384,-71.27689764,284.366,-26.371,0.179,7.78,,1,1,1,767.988
6.76,1999.318,,64.082,6.538,46.781934,-71.27687676,283.055,-26.09,0.087,4.322,,1,1,1,766.623
6.81,2013.438,,64.879,6.561,46.78193414,-71.27685597,281.756,-25.876,-0.005,8.388,,1,1,1,765.264
6.86,2027.494,,65.404,6.592,46.78193429,-71.27683524,280.467,-25.67,-0.096,4.837,,1,1,1,763.911
6.91,2041.485,,65.755,6.621,46.78193444,-71.27681458,279.189,-25.462,-0.187,5.038,,1,1,1,762.564
6.96,2055.413,,66.199,6.648,46.78193458,-71.27679396,277.92,-25.263,-0.278,6.578,,1,1,1,761.224
7.01,2069.277,,66.568,6.664,46.78193472,-71.2767734,276.663,-24.999,-0.368,0.134,,1,1,1,759.889
7.06,2083.079,,66.944,6.665,46.78193487,-71.27675288,275.421,-24.716,-0.458,1.806,,1,1,1,758.561
7.11,2096.819,,67.496,6.66,46.78193502,-71.27673244,274.191,-24.475,-0.547,4.854,,1,1,1,757.238
7.16,2110.498,,67.957,6.667,46.78193517,-71.27671208,272.973,-24.286,-0.636,2.093,,1,1,1,755.921
7.21,2124.117,,68.347,6.701,46.78193531,-71.27669178,271.762,-24.142,-0.724,1.57,,1,1,1,754.611
7.26,2137.675,,69.031,6.765,46.78193545,-71.27667154,270.558,-23.981,-0.812,1.602,,1,1,1,753.306
7.31,2151.173,,69.529,6.82,46.7819356,-71.27665135,269.364,-23.787,-0.9,7.138,,1,1,1,752.006
7.36,2164.611,,70.071,6.829,46.78193574,-71.27663119,268.18,-23.579,-0.987,9.793,,1,1,1,750.713
7.41,2177.991,,70.661,6.783,46.78193588,-71.27661109,267.006,-23.351,-1.074,7.147,,1,1,1,749.425
7.46,2191.312,,71.18,6.716,46.78193602,-71.27659106,265.845,-23.141,-1.161,4.407,,1,1,1,748.143
7.51,2204.575,,71.667,6.674,46.78193617,-71.27657107,264.692,-22.983,-1.247,3.578,,1,1,1,746.866
7.56,2217.781,,72.26,6.689,46.78193631,-71.27655117,263.546,-22.856,-1.333,7.006,,1,1,1,745.656
7.61,2230.93,,72.812,6.756,46.78193645,-71.27653132,262.406,-22.708,-1.419,0.556,,1,1,1,744.453
7.66,2244.022,,73.187,6.841,46.78193659,-71.2765115,261.275,-22.549,-1.504,1.58,,1,1,1,743.256
7.71,2257.058,,73.621,6.904,46.78193673,-71.27649173,260.152,-22.373,-1.588,2.598,,1,1,1,742.063
7.76,2270.037,,74.1,6.921,46.78193688,-71.27647202,259.038,-22.183,-1.673,8.578,,1,1,1,740.876
7.81,2282.962,,74.57,6.885,46.78193701,-71.27645235,257.933,-22.007,-1.757,9.554,,1,1,1,739.693
7.86,2295.831,,74.885,6.825,46.78193715,-71.27643275,256.837,-21.868,-1.84,2.493,,1,1,1,738.516
7.91,2308.645,,75.48,6.787,46.78193729,-71.2764132,255.746,-21.757,-1.924,1.58,,1,1,1,737.344
7.96,2321.406,,75.865,6.8,46.78193744,-71.27639371,254.661,-21.64,-2.007,6.909,,1,1,1,736.177
8.01,2334.112,,76.303,6.863,46.78193758,-71.27637425,253.582,-21.486,-2.089,2.712,,1,1,1,735.014
8.06,2346.764,,76.796,6.946,46.78193771,-71.27635483,252.513,-21.31,-2.171,4.746,,1,1,1,733.857
8.11,2359.363,,77.294,7.012,46.78193785,-71.27633547,251.451,-21.165,-2.253,7.021,,1,1,1,732.704
8.16,2371.909,,77.755,7.04,46.78193799,-71.27631615,250.396,-21.028,-2.335,7.506,,1,1,1,731.556
8.21,2384.403,,78.299,7.027,46.78193813,-71.2762969,249.348,-20.917,-2.416,2.455,,1,1,1,730.414
8.26,2396.844,,78.818,6.987,46.78193826,-71.27627768,248.304,-20.818,-2.497,8.095,,1,1,1,729.275
8.31,2409.233,,79.32,6.95,46.7819384,-71.27625851,247.267,-20.678,-2.578,8.91,,1,1,1,728.142
8.36,2421.571,,79.784,6.938,46.78193854,-71.27623936,246.236,-20.529,-2.658,0.95,,1,1,1,727.013
8.41,2433.857,,80.36,6.957,46.78193868,-71.27622027,245.214,-20.381,-2.738,0.608,,1,1,1,725.889
8.46,2446.092,,80.902,6.996,46.78193881,-71.27620123,244.198,-20.246,-2.817,5.479,,1,1,1,724.77
8.51,2458.277,,81.336,7.035,46.78193894,-71.27618224,243.189,-20.127,-2.896,0.143,,1,1,1,723.656
8.56,2470.411,,81.948,7.057,46.78193908,-71.27616331,242.186,-20.01,-2.975,7.839,,1,1,1,722.546
8.61,2482.496,,82.408,7.053,46.78193922,-71.27614442,241.187,-19.929,-3.054,6.072,,1,1,1,721.44
8.66,2494.53,,82.861,7.032,46.78193935,-71.27612558,240.193,-19.849,-3.132,7.748,,1,1,1,720.339
8.71,2506.515,,83.358,7.009,46.78193949,-71.27610677,239.202,-19.752,-3.21,7.853,,1,1,1,719.243
8.76,2518.45,,83.856,6.994,46.78193963,-71.276088,238.218,-19.625,-3.287,5.109,,1,1,1,718.151
8.81,2530.337,,84.271,6.997,46.78193975,-71.27606926,237.24,-19.49,-3.365,6.825,,1,1,1,717.064
8.86,2542.175,,84.662,7.024,46.78193989,-71.27605054,236.269,-19.355,-3.442,8.822,,1,1,1,715.981
8.91,2553.964,,85.138,7.066,46.78194002,-71.2760319,235.305,-19.222,-3.518,9.601,,1,1,1,714.902
8.96,2565.705,,85.621,7.113,46.78194016,-71.27601329,234.347,-19.111,-3.595,5.497,,1,1,1,713.828
9.01,2577.399,,86.145,7.154,46.78194029,-71.27599473,233.392,-19.056,-3.671,5.012,,1,1,1,712.758
9.06,2589.044,,86.659,7.168,46.78194043,-71.27597622,232.441,-18.985,-3.746,5.767,,1,1,1,711.693
9.11,2600.643,,87.077,7.15,46.78194055,-71.27595774,231.494,-18.883,-3.822,7.157,,1,1,1,710.632
9.16,2612.194,,87.498,7.123,46.78194069,-71.2759393,230.553,-18.779,-3.897,7.324,,1,1,1,709.575
9.21,2623.698,,87.966,7.12,46.78194082,-71.27592089,229.616,-18.676,-3.972,9.381,,1,1,1,708.523
9.26,2635.156,,88.374,7.154,46.78194096,-71.27590252,228.685,-18.562,-4.046,0.007,,1,1,1,707.475
9.31,2646.567,,88.806,7.216,46.78194109,-71.27588417,227.76,-18.443,-4.12,3.386,,1,1,1,706.431
9.36,2657.932,,89.284,7.296,46.78194122,-71.27586589,226.841,-18.352,-4.194,3.767,,1,1,1,705.391
9.41,2669.251,,89.816,7.373,46.78194135,-71.27584764,225.925,-18.264,-4.268,1.385,,1,1,1,704.356
9.46,2680.524,,90.16,7.422,46.78194148,-71.27582943,225.014,-18.191,-4.341,2.773,,1,1,1,703.324
9.51,2691.752,,90.54,7.428,46.78194161,-71.27581127,224.106,-18.124,-4.414,3.801,,1,1,1,702.297
9.56,2702.935,,90.999,7.393,46.78194174,-71.27579313,223.202,-18.041,-4.487,1.713,,1,1,1,701.274
9.61,2714.073,,91.439,7.333,46.78194187,-71.27577504,222.302,-17.941,-4.559,7.876,,1,1,1,700.297
9.66,2725.165,,91.876,7.28,46.78194201,-71.27575697,221.408,-17.845,-4.631,1.11,,1,1,1,699.333
9.71,2736.213,,92.313,7.264,46.78194214,-71.27573893,220.518,-17.756,-4.703,0.708,,1,1,1,698.373
9.76,2747.217,,92.735,7.298,46.78194227,-71.27572093,219.632,-17.669,-4.774,0.937,,1,1,1,697.417
9.81,2758.177,,93.156,7.371,46.7819424,-71.27570298,218.751,-17.568,-4.846,8.428,,1,1,1,696.465
9.86,2769.092,,93.529,7.452,46.78194252,-71.27568506,217.875,-17.482,-4.917,5.019,,1,1,1,695.516
9.91,2779.964,,94.108,7.51,46.78194265,-71.27566719,217.003,-17.42,-4.987,4.538,,1,1,1,694.572
9.96,2790.793,,94.488,7.539,46.78194278,-71.27564935,216.132,-17.386,-5.058,3.2,,1,1,1,693.631
10.01,2801.577,,94.962,7.542,46.78194291,-71.27563156,215.264,-17.334,-5.128,2.618,,1,1,1,692.694
10.06,2812.319,,95.423,7.521,46.78194304,-71.27561376,214.4,-17.245,-5.198,2.853,,1,1,1,691.761
10.11,2823.018,,95.854,7.491,46.78194317,-71.275596,213.539,-17.158,-5.267,7.016,,1,1,1,690.831
10.16,2833.673,,96.255,7.47,46.7819433,-71.27557827,212.684,-17.053,-5.336,6.287,,1,1,1,689.905
10.21,2844.286,,96.82,7.469,46.78194343,-71.27556057,211.834,-16.951,-5.405,4.094,,1,1,1,688.983
10.26,2854.857,,97.228,7.488,46.78194356,-71.2755429,210.989,-16.848,-5.474,9.729,,1,1,1,688.064
10.31,2865.385,,97.694,7.522,46.78194368,-71.27552529,210.149,-16.779,-5.543,4.409,,1,1,1,687.15
10.36,2875.871,,98.051,7.57,46.78194381,-71.27550772,209.311,-16.731,-5.611,5.099,,1,1,1,686.238
10.41,2886.316,,98.355,7.612,46.78194393,-71.27549017,208.476,-16.672,-5.679,3.164,,1,1,1,685.331
10.46,2896.719,,98.921,7.631,46.78194406,-71.27547267,207.643,-16.643,-5.746,7.811,,1,1,1,684.427
10.51,2907.08,,99.322,7.615,46.78194419,-71.27545519,206.812,-16.601,-5.814,1.022,,1,1,1,683.527
10.56,2917.4,,99.726,7.566,46.78194431,-71.27543774,205.983,-16.527,-5.881,8.075,,1,1,1,682.63
10.61,2927.679,,100.167,7.504,46.78194444,-71.27542031,205.159,-16.447,-5.947,7.355,,1,1,1,681.737
10.66,2937.916,,100.642,7.459,46.78194457,-71.27540289,204.339,-16.357,-6.014,8.59,,1,1,1,680.847
10.71,2948.113,,101.033,7.453,46.78194469,-71.2753855,203.524,-16.254,-6.08,1.599,,1,1,1,679.961
10.76,2958.269,,101.378,7.491,46.78194482,-71.27536814,202.714,-16.153,-6.146,5.896,,1,1,1,679.079
10.81,2968.384,,101.784,7.565,46.78194495,-71.27535084,201.908,-16.079,-6.212,9.401,,1,1,1,678.2
10.86,2978.46,,102.308,7.657,46.78194507,-71.27533356,201.105,-16.034,-6.277,3.451,,1,1,1,677.325
10.91,2988.495,,102.678,7.752,46.7819452,-71.27531634,200.304,-16.01,-6.343,5.449,,1,1,1,676.453
10.96,2998.49,,103.039,7.834,46.78194532,-71.27529915,199.504,-15.979,-6.408,6.294,,1,1,1,675.584
11.01,3008.445,,103.433,7.894,46.78194545,-71.27528198,198.707,-15.925,-6.472,7.029,,1,1,1,674.719
11.06,3018.361,,103.831,7.925,46.78194557,-71.27526484,197.912,-15.863,-6.537,8.976,,1,1,1,673.858
11.11,3028.237,,104.238,7.921,46.7819457,-71.27524771,197.12,-15.81,-6.601,0.838,,1,1,1,673
11.16,3038.073,,104.639,7.893,46.78194582,-71.27523062,196.331,-15.748,-6.665,0.606,,1,1,1,672.145
11.21,3047.87,,105.048,7.859,46.78194595,-71.27521354,195.545,-15.676,-6.729,7.403,,1,1,1,671.294
11.26,3057.627,,105.487,7.837,46.78194607,-71.27519649,194.764,-15.588,-6.792,1.977,,1,1,1,670.446
11.31,3067.346,,105.889,7.84,46.7819462,-71.27517946,193.986,-15.517,-6.855,1.723,,1,1,1,669.601
11.36,3077.026,,106.305,7.874,46.78194632,-71.27516246,193.212,-15.455,-6.918,0.206,,1,1,1,668.76
11.41,3086.667,,106.699,7.936,46.78194645,-71.27514552,192.441,-15.399,-6.981,7.406,,1,1,1,667.923
11.46,3096.27,,107.134,8.011,46.78194657,-71.27512859,191.672,-15.351,-7.043,6.47,,1,1,1,667.088
11.51,3105.835,,107.563,8.078,46.78194669,-71.27511171,190.905,-15.325,-7.105,3.491,,1,1,1,666.257
11.56,3115.361,,107.98,8.122,46.78194682,-71.27509484,190.14,-15.277,-7.167,9.948,,1,1,1,665.429
11.61,3124.849,,108.439,8.147,46.78194694,-71.275078,189.378,-15.221,-7.229,7.038,,1,1,1,664.605
11.66,3134.299,,108.844,8.162,46.78194706,-71.27506119,188.617,-15.189,-7.29,0.267,,1,1,1,663.784
11.71,3143.71,,109.22,8.172,46.78194718,-71.2750444,187.859,-15.137,-7.352,7.478,,1,1,1,662.966
11.76,3153.085,,109.627,8.171,46.78194731,-71.27502762,187.104,-15.086,-7.413,0.159,,1,1,1,662.152
11.81,3162.421,,110.038,8.158,46.78194743,-71.27501088,186.351,-15.024,-7.473,5.099,,1,1,1,661.34
11.86,3171.72,,110.442,8.145,46.78194755,-71.27499414,185.601,-14.952,-7.534,5.127,,1,1,1,660.532
11.91,3180.981,,110.866,8.142,46.78194767,-71.27497744,184.855,-14.884,-7.594,7.955,,1,1,1,659.728
11.96,3190.205,,111.305,8.152,46.7819478,-71.27496076,184.113,-14.816,-7.654,0.368,,1,1,1,658.926
12.01,3199.392,,111.707,8.176,46.78194792,-71.27494412,183.374,-14.754,-7.714,5.78,,1,1,1,658.128
12.06,3208.543,,112.087,8.215,46.78194804,-71.27492751,182.638,-14.7,-7.773,2.552,,1,1,1,657.349
12.11,3217.656,,112.698,8.263,46.78194816,-71.27491094,181.903,-14.667,-7.832,5.999,,1,1,1,656.597
12.16,3226.733,,113.236,8.313,46.78194828,-71.27489441,181.171,-14.649,-7.891,4.358,,1,1,1,655.848
12.21,3235.773,,113.857,8.36,46.7819484,-71.2748779,180.438,-14.648,-7.95,5.305,,1,1,1,655.103
12.26,3244.777,,114.325,8.394,46.78194852,-71.2748614,179.706,-14.615,-8.009,5.35,,1,1,1,654.36
12.31,3253.744,,114.654,8.404,46.78194864,-71.27484492,178.977,-14.572,-8.067,1.186,,1,1,1,653.621
12.36,3262.675,,115.063,8.393,46.78194876,-71.27482845,178.249,-14.513,-8.125,2.982,,1,1,1,652.884
12.41,3271.569,,115.453,8.373,46.78194888,-71.274812,177.525,-14.449,-8.183,4.649,,1,1,1,652.15
12.46,3280.427,,115.918,8.354,46.781949,-71.27479557,176.804,-14.39,-8.24,3.383,,1,1,1,651.42
12.51,3289.249,,116.359,8.349,46.78194912,-71.27477916,176.086,-14.332,-8.298,5.568,,1,1,1,650.692
12.56,3298.036,,116.761,8.36,46.78194924,-71.27476278,175.371,-14.264,-8.355,3.358,,1,1,1,649.967
12.61,3306.787,,117.179,8.386,46.78194936,-71.27474642,174.66,-14.209,-8.412,6.807,,1,1,1,649.246
12.66,3315.502,,117.577,8.422,46.78194948,-71.27473011,173.95,-14.177,-8.468,3.372,,1,1,1,648.527
12.71,3324.182,,118.042,8.467,46.7819496,-71.27471382,173.242,-14.147,-8.525,4.976,,1,1,1,647.811
12.76,3332.826,,118.471,8.523,46.78194972,-71.27469754,172.535,-14.116,-8.581,7.908,,1,1,1,647.098
12.81,3341.435,,118.899,8.58,46.78194984,-71.2746813,171.83,-14.084,-8.637,6.942,,1,1,1,646.388
12.86,3350.009,,119.293,8.633,46.78194996,-71.27466508,171.127,-14.042,-8.693,8.076,,1,1,1,645.681
12.91,3358.548,,119.697,8.675,46.78195008,-71.27464888,170.426,-14.007,-8.748,4.132,,1,1,1,644.977
12.96,3367.052,,120.109,8.699,46.7819502,-71.27463269,169.727,-13.971,-8.803,5.197,,1,1,1,644.275
13.01,3375.521,,120.51,8.708,46.78195032,-71.27461653,169.029,-13.935,-8.858,5.701,,1,1,1,643.577
13.06,3383.955,,120.923,8.702,46.78195044,-71.27460039,168.333,-13.904,-8.913,2.373,,1,1,1,642.881
13.11,3392.354,,121.304,8.685,46.78195056,-71.27458425,167.639,-13.848,-8.968,7.651,,1,1,1,642.188
13.16,3400.719,,121.696,8.669,46.78195068,-71.27456815,166.948,-13.782,-9.022,9.496,,1,1,1,641.498
13.21,3409.049,,122.086,8.664,46.7819508,-71.27455207,166.261,-13.727,-9.076,8.552,,1,1,1,640.811
13.26,3417.345,,122.491,8.673,46.78195091,-71.274536,165.576,-13.682,-9.13,5.887,,1,1,1,640.127
13.31,3425.606,,122.88,8.7,46.78195103,-71.27451997,164.892,-13.649,-9.184,3.163,,1,1,1,639.446
13.36,3433.834,,123.294,8.741,46.78195115,-71.27450397,164.211,-13.615,-9.237,0.282,,1,1,1,638.767
13.41,3442.028,,123.744,8.794,46.78195127,-71.27448798,163.531,-13.579,-9.291,2.537,,1,1,1,638.091
13.46,3450.187,,124.147,8.853,46.78195138,-71.27447203,162.852,-13.555,-9.344,8.816,,1,1,1,637.418
13.51,3458.313,,124.568,8.912,46.7819515,-71.27445611,162.176,-13.522,-9.397,8.168,,1,1,1,636.748
13.56,3466.405,,125.063,8.964,46.78195163,-71.2744402,161.5,-13.498,-9.449,0.371,,1,1,1,636.081
13.61,3474.463,,125.524,9.008,46.78195174,-71.2744243,160.826,-13.462,-9.502,4.587,,1,1,1,635.416
13.66,3482.487,,125.866,9.045,46.78195186,-71.27440843,160.154,-13.437,-9.554,5.923,,1,1,1,634.754
13.71,3490.478,,126.289,9.073,46.78195197,-71.27439258,159.482,-13.412,-9.606,1.595,,1,1,1,634.095
13.76,3498.436,,126.68,9.093,46.78195209,-71.27437674,158.812,-13.382,-9.657,7.693,,1,1,1,633.439
13.81,3506.359,,127.092,9.105,46.78195221,-71.27436092,158.144,-13.35,-9.709,9.761,,1,1,1,632.786
13.86,3514.25,,127.501,9.112,46.78195232,-71.2743451,157.477,-13.315,-9.76,7.436,,1,1,1,632.135
13.91,3522.107,,127.898,9.117,46.78195244,-71.27432931,156.813,-13.27,-9.811,2.536,,1,1,1,631.487
13.96,3529.931,,128.297,9.123,46.78195256,-71.27431353,156.151,-13.216,-9.862,5.402,,1,1,1,630.841
14.01,3537.722,,128.687,9.133,46.78195268,-71.27429776,155.491,-13.162,-9.913,8.7,,1,1,1,630.199
14.06,3545.481,,129.112,9.152,46.78195279,-71.27428202,154.834,-13.128,-9.963,5.311,,1,1,1,629.559
14.11,3553.206,,129.519,9.178,46.78195291,-71.27426631,154.179,-13.088,-10.013,3.251,,1,1,1,628.922
14.16,3560.898,,129.913,9.204,46.78195302,-71.27425061,153.525,-13.044,-10.063,9.825,,1,1,1,628.287
14.21,3568.558,,130.315,9.225,46.78195314,-71.27423494,152.874,-13.012,-10.113,3.596,,1,1,1,627.656
14.26,3576.186,,130.775,9.237,46.78195325,-71.2742193,152.224,-12.98,-10.163,4.15,,1,1,1,627.026
14.31,3583.781,,131.24,9.243,46.78195338,-71.27420369,151.576,-12.962,-10.212,7.196,,1,1,1,626.4
14.36,3591.343,,131.612,9.248,46.78195349,-71.27418809,150.928,-12.957,-10.261,5.788,,1,1,1,625.776
14.41,3598.874,,132.029,9.254,46.78195361,-71.27417252,150.28,-12.942,-10.31,5.563,,1,1,1,625.155
14.46,3606.371,,132.481,9.268,46.78195372,-71.27415695,149.634,-12.918,-10.359,0.645,,1,1,1,624.537
14.51,3613.837,,132.924,9.3,46.78195384,-71.27414141,148.988,-12.892,-10.407,5.184,,1,1,1,623.921
14.56,3621.27,,133.324,9.35,46.78195395,-71.27412588,148.344,-12.87,-10.456,9.768,,1,1,1,623.308
14.61,3628.671,,133.74,9.409,46.78195407,-71.27411034,147.702,-12.835,-10.504,4.101,,1,1,1,622.698
14.66,3636.041,,134.148,9.478,46.78195419,-71.27409484,147.061,-12.797,-10.552,7.731,,1,1,1,622.09
14.71,3643.378,,134.547,9.555,46.7819543,-71.27407934,146.422,-12.751,-10.599,2.097,,1,1,1,621.485
14.76,3650.683,,134.958,9.631,46.78195441,-71.27406384,145.786,-12.708,-10.647,1.875,,1,1,1,620.882
14.81,3657.956,,135.38,9.703,46.78195453,-71.27404838,145.151,-12.663,-10.694,6.864,,1,1,1,620.282
14.86,3665.198,,135.786,9.769,46.78195464,-71.27403294,144.519,-12.626,-10.741,9.578,,1,1,1,619.685
14.91,3672.408,,136.189,9.823,46.78195476,-71.27401751,143.889,-12.597,-10.788,2.479,,1,1,1,619.09
14.96,3679.587,,136.574,9.857,46.78195488,-71.27400211,143.26,-12.562,-10.835,9.079,,1,1,1,618.498
15.01,3686.734,,136.983,9.87,46.78195499,-71.27398673,142.632,-12.533,-10.881,7.137,,1,1,1,617.909
15.06,3693.85,,137.407,9.866,46.7819551,-71.27397138,142.006,-12.517,-10.928,0.639,,1,1,1,617.322
15.11,3700.935,,137.738,9.85,46.78195522,-71.27395605,141.38,-12.509,-10.974,2.715,,1,1,1,616.738
15.16,3707.988,,138.149,9.826,46.78195534,-71.27394072,140.755,-12.496,-11.019,9.732,,1,1,1,616.168
15.21,3715.01,,138.567,9.798,46.78195545,-71.27392543,140.131,-12.481,-11.065,3.747,,1,1,1,615.619
15.26,3722.001,,138.982,9.776,46.78195556,-71.27391013,139.507,-12.462,-11.111,2.334,,1,1,1,615.072
15.31,3728.961,,139.409,9.772,46.78195567,-71.27389485,138.885,-12.436,-11.156,7.441,,1,1,1,614.528
15.36,3735.89,,139.81,9.794,46.7819558,-71.27387958,138.264,-12.403,-11.201,8.934,,1,1,1,613.986
15.41,3742.787,,140.219,9.839,46.78195591,-71.27386433,137.645,-12.363,-11.246,7.933,,1,1,1,613.446
15.46,3749.654,,140.635,9.902,46.78195602,-71.2738491,137.028,-12.323,-11.29,0.264,,1,1,1,612.909
15.51,3756.49,,141.053,9.98,46.78195613,-71.27383387,136.412,-12.3,-11.335,9.405,,1,1,1,612.374
15.56,3763.295,,141.463,10.072,46.78195624,-71.27381867,135.798,-12.268,-11.379,6.179,,1,1,1,611.841
15.61,3770.07,,141.865,10.173,46.78195636,-71.27380348,135.185,-12.238,-11.423,0.742,,1,1,1,611.311
15.66,3776.814,,142.275,10.276,46.78195648,-71.2737883,134.574,-12.209,-11.467,7.313,,1,1,1,610.784
15.71,3783.527,,142.69,10.373,46.78195659,-71.27377315,133.964,-12.19,-11.51,3.794,,1,1,1,610.258
15.76,3790.21,,143.092,10.461,46.7819567,-71.27375801,133.355,-12.168,-11.554,2.788,,1,1,1,609.736
15.81,3796.863,,143.52,10.531,46.78195682,-71.2737429,132.747,-12.151,-11.597,0.736,,1,1,1,609.215
15.86,3803.485,,143.93,10.582,46.78195693,-71.2737278,132.14,-12.13,-11.64,0.726,,1,1,1,608.697
15.91,3810.077,,144.36,10.617,46.78195704,-71.27371271,131.534,-12.107,-11.683,5.09,,1,1,1,608.181
15.96,3816.639,,144.808,10.638,46.78195715,-71.27369764,130.929,-12.09,-11.726,3.265,,1,1,1,607.668
16.01,3823.17,,145.233,10.647,46.78195727,-71.27368258,130.325,-12.063,-11.768,5.945,,1,1,1,607.157
16.06,3829.671,,145.629,10.654,46.78195738,-71.27366754,129.722,-12.056,-11.81,0.647,,1,1,1,606.648
16.11,3836.142,,146.039,10.668,46.78195749,-71.2736525,129.12,-12.046,-11.852,2.458,,1,1,1,606.142
16.16,3842.583,,146.441,10.694,46.7819576,-71.27363748,128.518,-12.017,-11.894,5.977,,1,1,1,605.638
16.21,3848.994,,146.847,10.728,46.78195772,-71.27362248,127.918,-11.985,-11.936,9.91,,1,1,1,605.136
16.26,3855.375,,147.255,10.766,46.78195783,-71.27360747,127.32,-11.956,-11.977,1.805,,1,1,1,604.637
16.31,3861.726,,147.662,10.805,46.78195794,-71.27359248,126.723,-11.91,-12.019,7.64,,1,1,1,604.14
16.36,3868.047,,148.073,10.846,46.78195806,-71.27357751,126.129,-11.87,-12.06,7.521,,1,1,1,603.646
16.41,3874.339,,148.5,10.887,46.78195817,-71.27356255,125.536,-11.849,-12.101,4.211,,1,1,1,603.153
16.46,3880.601,,148.886,10.928,46.78195828,-71.27354763,124.944,-11.829,-12.141,1.012,,1,1,1,602.664
16.51,3886.833,,149.34,10.966,46.7819584,-71.27353271,124.353,-11.802,-12.182,0.231,,1,1,1,602.176
16.56,3893.036,,149.787,11.005,46.78195851,-71.27351781,123.763,-11.787,-12.222,4.001,,1,1,1,601.691
16.61,3899.21,,150.252,11.048,46.78195862,-71.27350293,123.174,-11.776,-12.262,9.248,,1,1,1,601.208
16.66,3905.354,,150.609,11.098,46.78195873,-71.27348808,122.585,-11.771,-12.302,3.552,,1,1,1,600.727
16.71,3911.468,,151.083,11.152,46.78195885,-71.27347323,121.997,-11.748,-12.342,6.874,,1,1,1,600.249
16.76,3917.553,,151.486,11.21,46.78195896,-71.2734584,121.41,-11.731,-12.382,9.154,,1,1,1,599.772
16.81,3923.609,,151.835,11.273,46.78195907,-71.27344359,120.824,-11.719,-12.421,3.46,,1,1,1,599.299
16.86,3929.636,,152.198,11.343,46.78195918,-71.27342878,120.238,-11.727,-12.46,1.062,,1,1,1,598.827
16.91,3935.633,,152.637,11.419,46.78195929,-71.27341398,119.652,-11.718,-12.499,5.16,,1,1,1,598.358
16.96,3941.601,,153.08,11.493,46.7819594,-71.27339919,119.067,-11.682,-12.538,0.255,,1,1,1,597.891
17.01,3947.54,,153.471,11.556,46.78195952,-71.27338441,118.483,-11.656,-12.577,2.177,,1,1,1,597.426
17.06,3953.449,,153.866,11.606,46.78195963,-71.27336964,117.902,-11.623,-12.615,9.373,,1,1,1,596.964
17.11,3959.33,,154.271,11.643,46.78195974,-71.27335487,117.321,-11.602,-12.653,9.732,,1,1,1,596.504
17.16,3965.181,,154.678,11.665,46.78195986,-71.27334012,116.741,-11.573,-12.691,8.606,,1,1,1,596.046
17.21,3971.004,,155.087,11.672,46.78195996,-71.27332539,116.164,-11.546,-12.729,9.863,,1,1,1,595.591
17.26,3976.798,,155.491,11.665,46.78196007,-71.27331066,115.587,-11.52,-12.767,3.349,,1,1,1,595.137
17.31,3982.563,,155.902,11.649,46.78196019,-71.27329595,115.011,-11.499,-12.804,0.803,,1,1,1,594.686
17.36,3988.299,,156.3,11.623,46.7819603,-71.27328126,114.437,-11.488,-12.841,4.951,,1,1,1,594.237
17.41,3994.007,,156.708,11.595,46.78196041,-71.27326658,113.863,-11.483,-12.879,4.512,,1,1,1,593.791
17.46,3999.685,,157.118,11.576,46.78196052,-71.27325191,113.289,-11.464,-12.915,6.698,,1,1,1,593.347
17.51,4005.335,,157.525,11.572,46.78196063,-71.27323726,112.716,-11.442,-12.952,8.368,,1,1,1,592.905
17.56,4010.957,,157.933,11.584,46.78196074,-71.27322262,112.144,-11.431,-12.989,5.566,,1,1,1,592.465
17.61,4016.55,,158.314,11.616,46.78196086,-71.27320799,111.573,-11.417,-13.025,6.312,,1,1,1,592.027
17.66,4022.114,,158.727,11.673,46.78196096,-71.27319337,111.003,-11.396,-13.061,9.698,,1,1,1,591.592
17.71,4027.65,,159.123,11.757,46.78196107,-71.27317877,110.433,-11.378,-13.097,0.35,,1,1,1,591.159
17.76,4033.158,,159.527,11.868,46.78196119,-71.27316417,109.865,-11.352,-13.133,1.2,,1,1,1,590.728
17.81,4038.637,,159.932,12,46.7819613,-71.27314958,109.298,-11.335,-13.169,7.548,,1,1,1,590.299
17.86,4044.087,,160.328,12.15,46.78196141,-71.273135,108.732,-11.315,-13.204,7.842,,1,1,1,589.873
17.91,4049.51,,160.739,12.312,46.78196152,-71.27312043,108.167,-11.291,-13.239,0.295,,1,1,1,589.448
17.96,4054.904,,161.144,12.479,46.78196163,-71.27310588,107.603,-11.261,-13.274,2.503,,1,1,1,589.026
18.01,4060.27,,161.54,12.643,46.78196174,-71.27309134,107.04,-11.236,-13.309,1.21,,1,1,1,588.607
18.06,4065.608,,161.941,12.802,46.78196185,-71.27307682,106.479,-11.222,-13.344,3.6,,1,1,1,588.189
18.11,4070.918,,162.352,12.944,46.78196196,-71.27306233,105.918,-11.216,-13.378,3.711,,1,1,1,587.773
18.16,4076.2,,162.769,13.061,46.78196207,-71.27304783,105.357,-11.213,-13.413,3.217,,1,1,1,587.36
18.21,4081.454,,163.198,13.147,46.78196218,-71.27303335,104.797,-11.196,-13.447,6.658,,1,1,1,586.949
18.26,4086.68,,163.608,13.203,46.7819623,-71.27301889,104.238,-11.187,-13.481,9.555,,1,1,1,586.54
18.31,4091.878,,164.024,13.235,46.7819624,-71.27300443,103.678,-11.178,-13.515,2.688,,1,1,1,586.134
18.36,4097.048,,164.427,13.243,46.78196252,-71.27298999,103.12,-11.156,-13.548,9.725,,1,1,1,585.729
18.41,4102.19,,164.839,13.229,46.78196262,-71.27297555,102.563,-11.14,-13.582,7.849,,1,1,1,585.327
18.46,4107.304,,165.239,13.199,46.78196273,-71.27296113,102.006,-11.135,-13.615,6.589,,1,1,1,584.927
18.51,4112.39,,165.668,13.157,46.78196285,-71.27294671,101.449,-11.122,-13.648,0.532,,1,1,1,584.529
18.56,4117.449,,166.06,13.109,46.78196295,-71.27293229,100.894,-11.104,-13.681,4.408,,1,1,1,584.133
18.61,4122.48,,166.437,13.065,46.78196307,-71.2729179,100.339,-11.085,-13.714,3.958,,1,1,1,583.739
18.66,4127.483,,166.818,13.034,46.78196317,-71.27290351,99.785,-11.062,-13.746,9.071,,1,1,1,583.348
18.71,4132.458,,167.225,13.024,46.78196328,-71.27288913,99.232,-11.05,-13.778,4.98,,1,1,1,582.959
18.76,4137.406,,167.608,13.035,46.7819634,-71.27287477,98.681,-11.027,-13.811,0.486,,1,1,1,582.572
18.81,4142.326,,168.003,13.065,46.7819635,-71.2728604,98.13,-11.01,-13.843,5.97,,1,1,1,582.187
18.86,4147.219,,168.434,13.117,46.78196362,-71.27284605,97.58,-10.988,-13.874,9.934,,1,1,1,581.804
18.91,4152.084,,168.838,13.194,46.78196372,-71.27283172,97.031,-10.975,-13.906,0.392,,1,1,1,581.423
18.96,4156.922,,169.25,13.293,46.78196384,-71.2728174,96.482,-10.97,-13.937,4.65,,1,1,1,581.045
19.01,4161.732,,169.645,13.41,46.78196394,-71.27280308,95.934,-10.953,-13.969,9.075,,1,1,1,580.668
19.06,4166.515,,170.016,13.541,46.78196405,-71.27278878,95.386,-10.94,-14,1.859,,1,1,1,580.294
19.11,4171.271,,170.399,13.684,46.78196416,-71.2727745,94.84,-10.923,-14.031,3.568,,1,1,1,579.922
19.16,4175.999,,170.804,13.832,46.78196427,-71.27276021,94.294,-10.906,-14.061,6.939,,1,1,1,579.552
19.21,4180.7,,171.227,13.977,46.78196438,-71.27274595,93.749,-10.893,-14.092,6.895,,1,1,1,579.184
19.26,4185.374,,171.597,14.114,46.78196449,-71.27273169,93.205,-10.883,-14.122,9.338,,1,1,1,578.819
19.31,4190.021,,171.999,14.238,46.7819646,-71.27271744,92.661,-10.88,-14.153,0.068,,1,1,1,578.455
19.36,4194.64,,172.411,14.349,46.78196471,-71.27270321,92.117,-10.86,-14.183,4.434,,1,1,1,578.094
19.41,4199.233,,172.833,14.447,46.78196482,-71.27268899,91.574,-10.858,-14.213,5.998,,1,1,1,577.734
19.46,4203.798,,173.22,14.532,46.78196493,-71.27267477,91.032,-10.848,-14.242,2.554,,1,1,1,577.377
19.51,4208.336,,173.621,14.602,46.78196504,-71.27266056,90.49,-10.828,-14.272,6.599,,1,1,1,577.036
19.56,4212.847,,174.026,14.66,46.78196514,-71.27264635,89.949,-10.819,-14.301,9.512,,1,1,1,576.701
19.61,4217.331,,174.432,14.71,46.78196526,-71.27263217,89.408,-10.812,-14.33,2.625,,1,1,1,576.369
19.66,4221.788,,174.83,14.753,46.78196536,-71.27261799,88.868,-10.794,-14.359,9.538,,1,1,1,576.038
19.71,4226.218,,175.236,14.791,46.78196548,-71.27260381,88.328,-10.781,-14.388,1.357,,1,1,1,575.709
19.76,4230.62,,175.607,14.826,46.78196558,-71.27258964,87.789,-10.773,-14.417,3.34,,1,1,1,575.383
19.81,4234.996,,176.019,14.858,46.78196569,-71.27257548,87.251,-10.756,-14.445,8.489,,1,1,1,575.058
19.86,4239.346,,176.429,14.888,46.7819658,-71.27256132,86.714,-10.75,-14.473,5.083,,1,1,1,574.736
19.91,4243.668,,176.83,14.917,46.7819659,-71.27254718,86.176,-10.738,-14.501,6.229,,1,1,1,574.415
19.96,4247.963,,177.248,14.944,46.78196602,-71.27253305,85.64,-10.718,-14.529,4.857,,1,1,1,574.097
20.01,4252.232,,177.628,14.969,46.78196612,-71.27251892,85.104,-10.706,-14.557,1.228,,1,1,1,573.78
20.06,4256.474,,178.025,14.99,46.78196623,-71.27250481,84.569,-10.697,-14.585,5,,1,1,1,573.465
20.11,4260.689,,178.433,15.009,46.78196634,-71.27249069,84.035,-10.689,-14.612,6.025,,1,1,1,573.153
20.16,4264.877,,178.823,15.03,46.78196645,-71.27247659,83.501,-10.66,-14.639,5.531,,1,1,1,572.842
20.21,4269.039,,179.205,15.057,46.78196656,-71.27246248,82.968,-10.644,-14.666,2.79,,1,1,1,572.533
20.26,4273.174,,179.623,15.092,46.78196667,-71.27244841,82.436,-10.632,-14.693,1.341,,1,1,1,572.227
20.31,4277.283,,180.008,15.136,46.78196678,-71.27243433,81.905,-10.618,-14.72,3.666,,1,1,1,571.922
20.36,4281.364,,180.414,15.192,46.78196689,-71.27242027,81.374,-10.608,-14.746,2.285,,1,1,1,571.619
20.41,4285.42,,180.815,15.263,46.781967,-71.2724062,80.844,-10.594,-14.773,3.415,,1,1,1,571.319
20.46,4289.449,,181.201,15.351,46.7819671,-71.27239216,80.315,-10.579,-14.799,2.584,,1,1,1,571.02
20.51,4293.451,,181.631,15.458,46.78196722,-71.27237813,79.786,-10.572,-14.825,2.062,,1,1,1,570.723
20.56,4297.428,,182.031,15.582,46.78196732,-71.2723641,79.258,-10.557,-14.851,6.111,,1,1,1,570.428
20.61,4301.377,,182.418,15.72,46.78196743,-71.27235008,78.73,-10.552,-14.876,1.292,,1,1,1,570.135
20.66,4305.301,,182.818,15.872,46.78196754,-71.27233608,78.203,-10.554,-14.902,1.065,,1,1,1,569.844
20.71,4309.198,,183.199,16.036,46.78196765,-71.27232208,77.675,-10.544,-14.927,3.642,,1,1,1,569.555
20.76,4313.068,,183.62,16.209,46.78196775,-71.27230808,77.149,-10.527,-14.952,3.154,,1,1,1,569.268
20.81,4316.912,,184.022,16.388,46.78196786,-71.27229411,76.622,-10.519,-14.977,2.355,,1,1,1,568.983
20.86,4320.73,,184.458,16.568,46.78196797,-71.27228012,76.097,-10.506,-15.002,0.174,,1,1,1,568.7
20.91,4324.522,,184.89,16.747,46.78196808,-71.27226616,75.572,-10.492,-15.027,3.44,,1,1,1,568.418
20.96,4328.288,,185.293,16.921,46.78196819,-71.27225221,75.047,-10.487,-15.051,9.99,,1,1,1,568.139
21.01,4332.027,,185.697,17.09,46.78196829,-71.27223826,74.523,-10.48,-15.076,8.088,,1,1,1,567.862
21.06,4335.74,,186.138,17.251,46.78196841,-71.27222431,73.999,-10.472,-15.1,7.18,,1,1,1,567.586
21.11,4339.427,,186.511,17.402,46.78196851,-71.27221038,73.476,-10.46,-15.124,0.742,,1,1,1,567.313
21.16,4343.088,,186.925,17.538,46.78196862,-71.27219646,72.953,-10.451,-15.148,3.748,,1,1,1,567.041
21.21,4346.722,,187.344,17.66,46.78196872,-71.27218254,72.431,-10.439,-15.171,9.313,,1,1,1,566.772
21.26,4350.331,,187.763,17.768,46.78196884,-71.27216863,71.909,-10.428,-15.195,0.485,,1,1,1,566.504
21.31,4353.913,,188.138,17.86,46.78196895,-71.27215473,71.388,-10.408,-15.218,5.763,,1,1,1,566.239
21.36,4357.47,,188.553,17.938,46.78196905,-71.27214085,70.868,-10.397,-15.241,6.143,,1,1,1,565.975
21.41,4361,,188.941,18.002,46.78196916,-71.27212695,70.349,-10.394,-15.264,2.94,,1,1,1,565.713
21.46,4364.504,,189.355,18.055,46.78196927,-71.27211308,69.829,-10.379,-15.287,7.225,,1,1,1,565.453
21.51,4367.983,,189.751,18.099,46.78196938,-71.27209922,69.311,-10.362,-15.309,3.382,,1,1,1,565.195
21.56,4371.435,,190.163,18.135,46.78196948,-71.27208536,68.793,-10.353,-15.332,6.648,,1,1,1,564.939
21.61,4374.862,,190.563,18.164,46.78196959,-71.27207151,68.275,-10.359,-15.354,2.752,,1,1,1,564.685
21.66,4378.263,,190.936,18.188,46.7819697,-71.27205768,67.757,-10.356,-15.376,7.228,,1,1,1,564.433
21.71,4381.638,,191.34,18.211,46.7819698,-71.27204385,67.239,-10.352,-15.398,6.33,,1,1,1,564.182
21.76,4384.987,,191.719,18.234,46.78196992,-71.27203002,66.722,-10.353,-15.42,5.777,,1,1,1,563.934
21.81,4388.31,,192.112,18.258,46.78197002,-71.27201621,66.204,-10.349,-15.442,4.005,,1,1,1,563.687
21.86,4391.607,,192.477,18.285,46.78197013,-71.27200239,65.687,-10.34,-15.463,9.232,,1,1,1,563.443
21.91,4394.879,,192.9,18.316,46.78197024,-71.27198859,65.17,-10.334,-15.484,6.825,,1,1,1,563.2
21.96,4398.124,,193.307,18.354,46.78197034,-71.27197479,64.654,-10.332,-15.505,3.278,,1,1,1,562.959
22.01,4401.344,,193.705,18.4,46.78197045,-71.27196099,64.137,-10.325,-15.526,2.788,,1,1,1,562.721
22.06,4404.538,,194.093,18.459,46.78197056,-71.2719472,63.621,-10.319,-15.547,9.116,,1,1,1,562.484
22.11,4407.706,,194.505,18.534,46.78197067,-71.27193341,63.105,-10.308,-15.568,1.547,,1,1,1,562.249
22.16,4410.849,,194.912,18.63,46.78197078,-71.27191963,62.59,-10.298,-15.588,4.991,,1,1,1,562.016
22.21,4413.965,,195.298,18.748,46.78197088,-71.27190586,62.076,-10.288,-15.608,8.598,,1,1,1,561.785
22.26,4417.056,,195.695,18.889,46.78197099,-71.27189208,61.561,-10.284,-15.628,3.662,,1,1,1,561.555
22.31,4420.121,,196.114,19.05,46.7819711,-71.2718783,61.047,-10.276,-15.648,6.2,,1,1,1,561.328
22.36,4423.161,,196.512,19.232,46.7819712,-71.27186454,60.534,-10.259,-15.668,7.953,,1,1,1,561.103
22.41,4426.175,,196.918,19.433,46.78197131,-71.27185078,60.021,-10.24,-15.688,5.156,,1,1,1,560.879
22.46,4429.163,,197.305,19.65,46.78197142,-71.27183703,59.51,-10.23,-15.707,6.082,,1,1,1,560.657
22.51,4432.126,,197.705,19.886,46.78197153,-71.27182328,58.998,-10.224,-15.726,3.136,,1,1,1,560.438
22.56,4435.063,,198.105,20.14,46.78197164,-71.27180954,58.487,-10.215,-15.745,9.027,,1,1,1,560.22
22.61,4437.975,,198.506,20.41,46.78197174,-71.27179581,57.977,-10.194,-15.764,7.656,,1,1,1,560.004
22.66,4440.861,,198.913,20.691,46.78197185,-71.27178208,57.468,-10.178,-15.783,3.869,,1,1,1,559.79
22.71,4443.721,,199.321,20.981,46.78197196,-71.27176836,56.959,-10.168,-15.802,8.723,,1,1,1,559.578
22.76,4446.557,,199.744,21.277,46.78197206,-71.27175465,56.451,-10.164,-15.82,4.193,,1,1,1,559.367
22.81,4449.366,,200.146,21.578,46.78197217,-71.27174095,55.943,-10.158,-15.838,0.703,,1,1,1,559.159
22.86,4452.151,,200.523,21.88,46.78197228,-71.27172725,55.435,-10.135,-15.856,7.867,,1,1,1,558.952
22.91,4454.91,,200.926,22.177,46.78197238,-71.27171357,54.929,-10.127,-15.874,1.126,,1,1,1,558.748
22.96,4457.644,,201.322,22.468,46.78197249,-71.27169989,54.423,-10.122,-15.892,0.906,,1,1,1,558.545
23.01,4460.352,,201.709,22.75,46.7819726,-71.27168623,53.917,-10.117,-15.91,8.042,,1,1,1,558.344
23.06,4463.035,,202.092,23.023,46.7819727,-71.27167257,53.411,-10.12,-15.927,3.471,,1,1,1,558.145
23.11,4465.693,,202.462,23.285,46.78197281,-71.27165891,52.905,-10.12,-15.945,6.27,,1,1,1,557.948
23.16,4468.326,,202.856,23.536,46.78197292,-71.27164527,52.399,-10.12,-15.962,4.019,,1,1,1,557.753
23.21,4470.933,,203.219,23.774,46.78197303,-71.27163164,51.893,-10.118,-15.979,0.938,,1,1,1,557.559
23.26,4473.515,,203.628,23.995,46.78197314,-71.271618,51.387,-10.111,-15.995,2.545,,1,1,1,557.368
23.31,4476.072,,204.018,24.198,46.78197324,-71.27160438,50.882,-10.099,-16.012,9.888,,1,1,1,557.178
23.36,4478.603,,204.449,24.384,46.78197335,-71.27159077,50.377,-10.091,-16.028,1.501,,1,1,1,556.99
23.41,4481.11,,204.88,24.556,46.78197346,-71.27157716,49.873,-10.087,-16.045,6.838,,1,1,1,556.805
23.46,4483.591,,205.28,24.714,46.78197357,-71.27156355,49.368,-10.08,-16.061,2.275,,1,1,1,556.621
23.51,4486.046,,205.692,24.861,46.78197367,-71.27154996,48.865,-10.073,-16.077,6.039,,1,1,1,556.438
23.56,4488.477,,206.072,24.997,46.78197378,-71.27153637,48.361,-10.067,-16.093,2.242,,1,1,1,556.258
23.61,4490.883,,206.48,25.124,46.78197388,-71.27152279,47.858,-10.064,-16.108,6.913,,1,1,1,556.08
23.66,4493.263,,206.873,25.244,46.78197399,-71.27150921,47.355,-10.061,-16.124,7.454,,1,1,1,555.903
23.71,4495.618,,207.253,25.358,46.7819741,-71.27149564,46.852,-10.056,-16.139,1.959,,1,1,1,555.729
23.76,4497.948,,207.624,25.466,46.7819742,-71.27148208,46.349,-10.05,-16.154,0.809,,1,1,1,555.556
23.81,4500.253,,208.014,25.571,46.78197431,-71.27146852,45.847,-10.046,-16.169,7.024,,1,1,1,555.385
23.86,4502.533,,208.414,25.675,46.78197442,-71.27145497,45.344,-10.045,-16.184,6.478,,1,1,1,555.216
23.91,4504.787,,208.795,25.78,46.78197452,-71.27144143,44.842,-10.04,-16.199,9.849,,1,1,1,555.048
23.96,4507.017,,209.189,25.886,46.78197463,-71.27142789,44.34,-10.04,-16.213,4.234,,1,1,1,554.883
24.01,4509.221,,209.584,25.997,46.78197474,-71.27141436,43.839,-10.033,-16.227,7.172,,1,1,1,554.72
24.06,4511.401,,210.007,26.115,46.78197485,-71.27140084,43.337,-10.032,-16.242,5.242,,1,1,1,554.558
24.11,4513.555,,210.399,26.239,46.78197495,-71.27138731,42.835,-10.037,-16.256,6.271,,1,1,1,554.398
24.16,4515.684,,210.8,26.373,46.78197506,-71.2713738,42.333,-10.028,-16.269,1.195,,1,1,1,554.24
24.21,4517.788,,211.179,26.517,46.78197517,-71.27136028,41.832,-10.017,-16.283,8.192,,1,1,1,554.084
24.26,4519.868,,211.574,26.673,46.78197527,-71.27134677,41.332,-10.017,-16.297,9.369,,1,1,1,553.93
24.31,4521.922,,211.956,26.843,46.78197538,-71.27133327,40.831,-10.011,-16.31,3.077,,1,1,1,553.778
24.36,4523.951,,212.347,27.03,46.78197549,-71.27131977,40.33,-10.001,-16.323,7.034,,1,1,1,553.627
24.41,4525.955,,212.757,27.234,46.7819756,-71.27130627,39.831,-9.996,-16.336,8.474,,1,1,1,553.479
24.46,4527.934,,213.148,27.455,46.7819757,-71.27129278,39.331,-9.997,-16.349,1.129,,1,1,1,553.332
24.51,4529.888,,213.541,27.695,46.78197581,-71.27127929,38.831,-9.996,-16.362,8.175,,1,1,1,553.187
24.56,4531.817,,213.951,27.955,46.78197591,-71.27126582,38.331,-9.988,-16.374,1.266,,1,1,1,553.044
24.61,4533.721,,214.364,28.236,46.78197602,-71.27125233,37.832,-9.982,-16.387,9.604,,1,1,1,552.903
24.66,4535.6,,214.738,28.536,46.78197613,-71.27123887,37.333,-9.971,-16.399,8.002,,1,1,1,552.763
24.71,4537.454,,215.159,28.854,46.78197623,-71.27122539,36.835,-9.968,-16.411,8.5,,1,1,1,552.626
24.76,4539.283,,215.548,29.189,46.78197634,-71.27121193,36.337,-9.963,-16.423,2.807,,1,1,1,552.49
24.81,4541.088,,215.964,29.54,46.78197645,-71.27119847,35.839,-9.955,-16.435,8.388,,1,1,1,552.356
24.86,4542.867,,216.376,29.907,46.78197656,-71.27118502,35.341,-9.94,-16.446,0.385,,1,1,1,552.224
24.91,4544.622,,216.777,30.288,46.78197666,-71.27117157,34.845,-9.926,-16.458,4.715,,1,1,1,552.094
24.96,4546.352,,217.166,30.682,46.78197677,-71.27115812,34.349,-9.906,-16.469,0.261,,1,1,1,551.966
25.01,4548.057,,217.549,31.09,46.78197687,-71.27114469,33.853,-9.906,-16.48,5.02,,1,1,1,551.839
25.06,4549.737,,217.935,31.51,46.78197698,-71.27113125,33.359,-9.891,-16.491,8.601,,1,1,1,551.715
25.11,4551.393,,218.331,31.942,46.78197709,-71.27111783,32.864,-9.886,-16.502,8.197,,1,1,1,551.592
25.16,4553.024,,218.731,32.384,46.78197719,-71.27110441,32.37,-9.888,-16.512,0.545,,1,1,1,551.471
25.21,4554.63,,219.14,32.834,46.7819773,-71.271091,31.876,-9.873,-16.523,1.91,,1,1,1,551.352
25.26,4556.211,,219.562,33.291,46.78197741,-71.2710776,31.382,-9.862,-16.533,8.272,,1,1,1,551.234
25.31,4557.768,,219.964,33.755,46.78197752,-71.27106421,30.89,-9.853,-16.543,2.873,,1,1,1,551.119
25.36,4559.3,,220.357,34.226,46.78197762,-71.27105081,30.397,-9.847,-16.553,9.02,,1,1,1,551.005
25.41,4560.808,,220.761,34.704,46.78197772,-71.27103743,29.905,-9.841,-16.563,9.302,,1,1,1,550.894
25.46,4562.291,,221.185,35.188,46.78197783,-71.27102406,29.413,-9.841,-16.572,3.057,,1,1,1,550.784
25.51,4563.749,,221.582,35.679,46.78197794,-71.27101069,28.921,-9.827,-16.582,5.211,,1,1,1,550.675
25.56,4565.183,,221.974,36.177,46.78197805,-71.27099732,28.43,-9.83,-16.591,1.088,,1,1,1,550.569
25.61,4566.592,,222.35,36.68,46.78197815,-71.27098397,27.938,-9.832,-16.6,0.117,,1,1,1,550.465
25.66,4567.977,,222.728,37.189,46.78197826,-71.27097062,27.447,-9.826,-16.609,1.191,,1,1,1,550.362
25.71,4569.337,,223.152,37.702,46.78197836,-71.27095729,26.956,-9.812,-16.618,6.767,,1,1,1,550.261
25.76,4570.672,,223.548,38.22,46.78197847,-71.27094395,26.465,-9.809,-16.627,2.419,,1,1,1,550.162
25.81,4571.983,,223.966,38.744,46.78197858,-71.27093062,25.975,-9.808,-16.635,5.614,,1,1,1,550.065
25.86,4573.27,,224.351,39.274,46.78197868,-71.27091731,25.485,-9.797,-16.644,0.359,,1,1,1,549.969
25.91,4574.532,,224.752,39.811,46.78197879,-71.27090399,24.995,-9.798,-16.652,4.62,,1,1,1,549.876
25.96,4575.769,,225.142,40.353,46.7819789,-71.27089068,24.505,-9.794,-16.66,3.588,,1,1,1,549.784
26.01,4576.982,,225.568,40.901,46.781979,-71.27087739,24.015,-9.799,-16.668,0.946,,1,1,1,549.694
26.06,4578.171,,225.974,41.456,46.78197911,-71.27086409,23.526,-9.785,-16.676,7.243,,1,1,1,549.606
26.11,4579.335,,226.377,42.015,46.78197921,-71.27085081,23.037,-9.776,-16.683,4.256,,1,1,1,549.519
26.16,4580.474,,226.797,42.581,46.78197932,-71.27083753,22.548,-9.771,-16.691,9.69,,1,1,1,549.435
26.21,4581.589,,227.207,43.151,46.78197943,-71.27082425,22.059,-9.767,-16.698,9.338,,1,1,1,549.352
26.26,4582.68,,227.608,43.727,46.78197954,-71.27081099,21.571,-9.765,-16.705,9.482,,1,1,1,549.271
26.31,4583.747,,228.018,44.309,46.78197964,-71.27079774,21.083,-9.764,-16.712,2.805,,1,1,1,549.192
26.36,4584.789,,228.429,44.897,46.78197975,-71.27078448,20.595,-9.761,-16.719,4.617,,1,1,1,549.115
26.41,4585.806,,228.833,45.491,46.78197985,-71.27077123,20.107,-9.754,-16.725,2.359,,1,1,1,549.039
26.46,4586.799,,229.221,46.092,46.78197996,-71.27075799,19.619,-9.745,-16.732,6.645,,1,1,1,548.966
26.51,4587.768,,229.636,46.699,46.78198006,-71.27074475,19.132,-9.745,-16.738,0.456,,1,1,1,548.894
26.56,4588.712,,230.044,47.313,46.78198017,-71.27073153,18.645,-9.736,-16.744,0.869,,1,1,1,548.824
26.61,4589.633,,230.459,47.934,46.78198028,-71.27071832,18.158,-9.736,-16.75,1.216,,1,1,1,548.756
26.66,4590.528,,230.865,48.561,46.78198038,-71.2707051,17.672,-9.733,-16.756,2.912,,1,1,1,548.689
26.71,4591.4,,231.276,49.196,46.78198049,-71.27069189,17.185,-9.725,-16.762,4.178,,1,1,1,548.625
26.76,4592.247,,231.674,49.839,46.7819806,-71.27067869,16.699,-9.717,-16.767,3.668,,1,1,1,548.562
26.81,4593.07,,232.079,50.49,46.7819807,-71.27066549,16.213,-9.713,-16.772,9.734,,1,1,1,548.501
26.86,4593.868,,232.459,51.149,46.7819808,-71.2706523,15.728,-9.697,-16.778,0.382,,1,1,1,548.441
26.91,4594.642,,232.855,51.818,46.78198091,-71.27063912,15.243,-9.691,-16.783,5.192,,1,1,1,548.384
26.96,4595.392,,233.266,52.496,46.78198102,-71.27062594,14.759,-9.685,-16.788,1.453,,1,1,1,548.328
27.01,4596.118,,233.664,53.183,46.78198112,-71.27061277,14.275,-9.681,-16.792,4.354,,1,1,1,548.275
27.06,4596.82,,234.073,53.879,46.78198123,-71.27059961,13.791,-9.678,-16.797,8.984,,1,1,1,548.223
27.11,4597.497,,234.49,54.585,46.78198134,-71.27058645,13.307,-9.673,-16.801,1.539,,1,1,1,548.172
27.16,4598.151,,234.903,55.301,46.78198144,-71.27057329,12.824,-9.664,-16.805,7.832,,1,1,1,548.124
27.21,4598.78,,235.298,56.027,46.78198155,-71.27056016,12.341,-9.653,-16.81,2.112,,1,1,1,548.077
27.26,4599.385,,235.682,56.763,46.78198166,-71.27054701,11.858,-9.641,-16.814,4.874,,1,1,1,548.032
27.31,4599.966,,236.063,57.51,46.78198175,-71.27053387,11.377,-9.634,-16.817,1.699,,1,1,1,547.989
27.36,4600.522,,236.47,58.267,46.78198186,-71.27052075,10.895,-9.628,-16.821,2.641,,1,1,1,547.948
27.41,4601.055,,236.864,59.035,46.78198197,-71.27050763,10.414,-9.614,-16.824,5.765,,1,1,1,547.908
27.46,4601.564,,237.278,59.813,46.78198207,-71.27049451,9.934,-9.601,-16.828,5.853,,1,1,1,547.871
27.51,4602.048,,237.679,60.601,46.78198218,-71.27048142,9.454,-9.588,-16.831,4.466,,1,1,1,547.835
27.56,4602.509,,238.069,61.399,46.78198228,-71.27046831,8.975,-9.579,-16.834,3.8,,1,1,1,547.801
27.61,4602.946,,238.486,62.207,46.78198239,-71.27045521,8.496,-9.575,-16.837,5.859,,1,1,1,547.768
27.66,4603.359,,238.891,63.027,46.7819825,-71.27044213,8.017,-9.561,-16.839,2.62,,1,1,1,547.738
27.71,4603.748,,239.284,63.856,46.7819826,-71.27042905,7.54,-9.545,-16.842,0.171,,1,1,1,547.709
27.76,4604.113,,239.667,64.696,46.78198271,-71.27041597,7.063,-9.53,-16.844,4.205,,1,1,1,547.682
27.81,4604.454,,240.065,65.547,46.78198281,-71.27040291,6.587,-9.518,-16.846,8.981,,1,1,1,547.656
27.86,4604.771,,240.475,66.41,46.78198292,-71.27038984,6.111,-9.508,-16.849,2.756,,1,1,1,547.633
27.91,4605.065,,240.86,67.284,46.78198303,-71.27037679,5.636,-9.497,-16.85,7.233,,1,1,1,547.611
27.96,4605.335,,241.256,68.169,46.78198313,-71.27036375,5.162,-9.48,-16.852,9.78,,1,1,1,547.591
28.01,4605.581,,241.656,69.066,46.78198323,-71.2703507,4.688,-9.473,-16.854,1.945,,1,1,1,547.573
28.06,4605.804,,242.072,69.973,46.78198333,-71.27033767,4.214,-9.461,-16.855,8.159,,1,1,1,547.556
28.11,4606.003,,242.472,70.892,46.78198344,-71.27032464,3.742,-9.45,-16.857,7.24,,1,1,1,547.541
28.16,4606.178,,242.874,71.823,46.78198355,-71.27031163,3.269,-9.431,-16.858,7.286,,1,1,1,547.528
28.21,4606.33,,243.263,72.764,46.78198365,-71.27029861,2.798,-9.417,-16.859,2.772,,1,1,1,547.517
28.26,4606.458,,243.671,73.718,46.78198376,-71.27028559,2.328,-9.409,-16.859,2.51,,1,1,1,547.508
28.31,4606.562,,244.046,74.682,46.78198386,-71.27027259,1.858,-9.397,-16.86,8.359,,1,1,1,547.5
28.36,4606.644,,244.457,75.659,46.78198397,-71.2702596,1.388,-9.382,-16.861,1.445,,1,1,1,547.494
28.41,4606.701,,244.859,76.647,46.78198407,-71.27024661,0.919,-9.372,-16.861,9.485,,1,1,1,547.49
28.46,4606.735,,245.245,77.647,46.78198418,-71.27023362,0.451,-9.356,-16.861,7.172,,1,1,1,547.487
28.51,4606.746,,245.641,78.659,46.78198428,-71.27022064,-0.016,-9.343,-16.861,0.271,,1,1,1,547.486
28.56,4606.734,,246.034,79.683,46.78198439,-71.27020767,-0.483,-9.331,-16.861,2.009,,1,1,1,547.487
# Apogee
28.565,4606.731,,248.159,80.762,46.7819844,-71.27020634,-0.533,-9.75,-16.861,8.114,,1,1,1,547.487
29.065,4605.246,,250.279,80.536,46.78198544,-71.27007885,-5.406,-9.747,-16.861,6.053,,1,1,1,547.487
29.565,4601.362,,252.884,80.305,46.78198644,-71.26995567,-10.13,-9.448,-16.852,6.515,,1,1,1,547.598
30.065,4595.155,,254.909,81.682,46.78198741,-71.26983673,-14.699,-9.138,-16.826,4.321,,1,1,1,547.886
30.565,4586.71,,253.403,82.886,46.78198835,-71.26972211,-19.082,-8.765,-16.786,0.072,,1,1,1,548.346
31.065,4576.128,,256.33,83.898,46.78198925,-71.26961214,-23.245,-8.327,-16.731,7.907,,1,1,1,548.972
31.565,4563.525,,256.544,84.518,46.78199012,-71.26950709,-27.167,-7.843,-16.662,7.659,,1,1,1,549.757
32.065,4549.03,,257.042,85.936,46.78199094,-71.26940723,-30.814,-7.294,-16.58,0.753,,1,1,1,550.692
32.565,4532.78,,259.024,85.866,46.78199173,-71.26931279,-34.182,-6.737,-16.486,1.507,,1,1,1,551.767
33.065,4514.921,,261.48,86.209,46.78199247,-71.26922382,-37.254,-6.143,-16.381,8.798,,1,1,1,552.972
33.565,4495.6,,264.152,86.627,46.78199318,-71.26914043,-40.031,-5.554,-16.264,7.859,,1,1,1,554.297
34.065,4474.964,,263.323,87.025,46.78199384,-71.26906262,-42.515,-4.969,-16.139,1.623,,1,1,1,555.73
34.565,4453.156,,261.681,88.179,46.78199445,-71.26899039,-44.714,-4.398,-16.005,0.774,,1,1,1,557.26
35.065,4430.315,,263.835,89.168,46.78199502,-71.2689237,-46.652,-3.875,-15.863,5.087,,1,1,1,558.878
35.565,4406.565,,262.752,90.434,46.78199554,-71.26886226,-48.35,-3.396,-15.715,5.424,,1,1,1,560.572
36.065,4382.023,,262.164,90.049,46.78199603,-71.2688059,-49.816,-2.932,-15.56,7.459,,1,1,1,562.333
36.565,4356.8,,263.117,90.242,46.78199648,-71.26875454,-51.076,-2.521,-15.401,3.79,,1,1,1,564.154
37.065,4330.992,,263.545,91.728,46.78199688,-71.26870793,-52.157,-2.162,-15.237,0.393,,1,1,1,566.024
37.565,4304.684,,264.173,92.903,46.78199726,-71.26866577,-53.075,-1.836,-15.069,7.46,,1,1,1,567.939
38.065,4277.952,,266.826,93.602,46.78199759,-71.26862785,-53.851,-1.551,-14.898,4.567,,1,1,1,569.89
38.565,4250.865,,265.1,93.772,46.7819979,-71.26859394,-54.5,-1.3,-14.724,9.361,,1,1,1,571.872
