time, flightMode, statIgniter1, statIgniter2, statIgniter3, statIgniter4, statAccelerometer, statBarometer, statGPS, statSD, temperature, altitude, altitude_ft, speed, acceleration, gps_fix, latitude, longitude, pitch, yaw, roll, batt1_mV, batt2_mV, batt3_mV
1142.824, 1, 0, 0, , , 1, 1, , 1, 18.64, -0.5, -1.64, NaN, 0.99, 0, 0, 0, 4.93, 0.62, , , , 
1142.951, 1, 0, 0, , , 1, 1, , 1, 18.64, -0.53, -1.73, -0.22, 0.98, 0, 0, 0, 3.72, 2.33, , , , 
1143.094, 1, 0, 0, , , 1, 1, , 1, 18.65, -0.55, -1.81, -0.16, 0.98, 0, 0, 0, 4.41, 1.11, , , , 
1143.206, 1, 0, 0, , , 1, 1, , 1, 18.65, -0.57, -1.88, -0.19, 0.98, 0, 0, 0, 4.07, 1.71, , , , 
1143.351, 1, 0, 0, , , 1, 1, , 1, 18.65, -0.59, -1.93, -0.12, 0.98, 0, 0, 0, 3.98, 1.54, , , , 
1143.59, 1, 0, 0, , , 1, 1, , 1, 18.65, -0.6, -1.96, -0.04, 0.98, 0, 0, 0, 3.86, 1.54, , , , 
1143.703, 1, 0, 0, , , 1, 1, , 1, 18.66, -0.61, -2, -0.09, 0.98, 0, 0, 0, 3.91, 2.34, , , , 
1143.862, 1, 0, 0, , , 1, 1, , 1, 18.67, -0.62, -2.04, -0.07, 0.98, 0, 0, 0, 4.54, 2.19, , , , 
1143.99, 1, 0, 0, , , 1, 1, , 1, 18.67, -0.63, -2.06, -0.05, 0.98, 0, 0, 0, 5.45, 1.76, , , , 
1144.151, 1, 0, 0, , , 1, 1, , 1, 18.67, -0.63, -2.08, -0.03, 0.98, 0, 0, 0, 4.69, 2.96, , , , 
1144.278, 1, 0, 0, , , 1, 1, , 1, 18.67, -0.64, -2.09, -0.05, 0.98, 0, 0, 0, 6.55, 2.15, , , , 
1144.422, 1, 0, 0, , , 1, 1, , 1, 18.68, -0.64, -2.09, 0.02, 0.98, 0, 0, 0, 2.95, 2.81, , , , 
1144.551, 1, 0, 0, , , 1, 1, , 1, 18.68, -0.64, -2.09, 0.02, 0.98, 0, 0, 0, 4.76, 0.68, , , , 
1144.694, 1, 0, 0, , , 1, 1, , 1, 18.68, -0.63, -2.08, 0.04, 0.98, 0, 0, 0, 3.81, 1.54, , , , 
1144.822, 1, 0, 0, , , 1, 1, , 1, 18.68, -0.63, -2.08, -0.02, 0.98, 0, 0, 0, 3.59, 0.88, , , , 
1144.966, 1, 0, 0, , , 1, 1, , 1, 18.69, -0.64, -2.1, -0.06, 0.98, 0, 0, 0, 5.05, 1.59, , , , 
1145.094, 1, 0, 0, , , 1, 1, , 1, 18.69, -0.64, -2.11, -0.02, 0.98, 0, 0, 0, 3.89, 1.9, , , , 
1145.239, 1, 0, 0, , , 1, 1, , 1, 18.7, -0.65, -2.12, -0.04, 0.98, 0, 0, 0, 4.55, 1.63, , , , 
1145.35, 1, 0, 0, , , 1, 1, , 1, 18.7, -0.65, -2.12, 0.03, 0.98, 0, 0, 0, 4.31, 2.27, , , , 
1145.494, 1, 0, 0, , , 1, 1, , 1, 18.7, -0.64, -2.11, 0.04, 0.99, 0, 0, 0, 3.42, 0.93, , , , 
1145.622, 1, 0, 0, , , 1, 1, , 1, 18.71, -0.64, -2.12, -0.04, 0.98, 0, 0, 0, 4.27, 1.57, , , , 
1145.83, 1, 0, 0, , , 1, 1, , 1, 18.71, -0.65, -2.13, -0.04, 0.98, 0, 0, 0, 4.58, 1.71, , , , 
1146.007, 1, 0, 0, , , 1, 1, , 1, 18.71, -0.65, -2.13, 0, 0.98, 0, 0, 0, 3.85, 1.88, , , , 
1146.278, 1, 0, 0, , , 1, 1, , 1, 18.72, -0.66, -2.17, -0.04, 0.98, 0, 0, 0, 4.09, 1.51, , , , 
1146.407, 1, 0, 0, , , 1, 1, , 1, 18.72, -0.66, -2.17, -0.02, 0.98, 0, 0, 0, 4.23, 1.37, , , , 
1146.566, 1, 0, 0, , , 1, 1, , 1, 18.72, -0.67, -2.2, -0.06, 0.98, 0, 0, 0, 3.92, 1.59, , , , 
1147.222, 1, 0, 0, , , 1, 1, , 1, 18.74, -0.68, -2.24, -0.02, 0.98, 0, 0, 0, 3.24, 2.88, , , , 
1147.381, 1, 0, 0, , , 1, 1, , 1, 18.74, -0.69, -2.25, -0.04, 0.98, 0, 0, 0, 6.05, 1.65, , , , 
1147.494, 1, 0, 0, , , 1, 1, , 1, 18.75, -0.69, -2.27, -0.01, 0.99, 0, 0, 0, 5.53, 1.93, , , , 
1147.717, 1, 0, 0, , , 1, 1, , 1, 18.75, -0.69, -2.26, 0, 0.98, 0, 0, 0, 2.42, 3.37, , , , 
1147.91, 1, 0, 0, , , 1, 1, , 1, 18.75, -0.67, -2.21, 0.08, 0.98, 0, 0, 0, 3.58, 2.22, , , , 
1148.133, 1, 0, 0, , , 1, 1, , 1, 18.76, -0.67, -2.18, 0.02, 0.99, 0, 0, 0, 4.59, 0.4, , , , 
1148.262, 1, 0, 0, , , 1, 1, , 1, 18.76, -0.66, -2.16, 0.09, 0.98, 0, 0, 0, 3.3, 2.08, , , , 
1148.437, 1, 0, 0, , , 1, 1, , 1, 18.76, -0.65, -2.14, 0.05, 0.98, 0, 0, 0, 3.28, 3.69, , , , 
1148.71, 1, 0, 0, , , 1, 1, , 1, 18.77, -0.64, -2.11, 0.02, 0.98, 0, 0, 0, 4.61, 5.37, , , , 
1148.821, 1, 0, 0, , , 1, 1, , 1, 18.77, -0.64, -2.09, 0.02, 0.98, 0, 0, 0, 3.92, 3.27, , , , 
1148.982, 1, 0, 0, , , 1, 1, , 1, 18.78, -0.63, -2.08, 0.03, 0.98, 0, 0, 0, 4.91, 1.34, , , , 
1149.093, 1, 0, 0, , , 1, 1, , 1, 18.78, -0.63, -2.08, -0.03, 0.98, 0, 0, 0, 3.84, 3.25, , , , 
1149.237, 1, 0, 0, , , 1, 1, , 1, 18.78, -0.63, -2.07, -0.01, 0.98, 0, 0, 0, 4.33, 0.17, , , , 
1149.365, 1, 0, 0, , , 1, 1, , 1, 18.78, -0.63, -2.06, 0.01, 0.98, 0, 0, 0, 3.86, 2.39, , , , 
1149.509, 1, 0, 0, , , 1, 1, , 1, 18.79, -0.63, -2.05, 0.03, 0.98, 0, 0, 0, 5.17, 2.51, , , , 
1149.637, 1, 0, 0, , , 1, 1, , 1, 18.79, -0.63, -2.05, 0.04, 0.99, 0, 0, 0, 3.48, 1.5, , , , 
1149.781, 1, 0, 0, , , 1, 1, , 1, 18.79, -0.63, -2.08, -0.02, 0.99, 0, 0, 0, 5.01, 0.26, , , , 
1149.909, 1, 0, 0, , , 1, 1, , 1, 18.8, -0.64, -2.11, -0.09, 0.98, 0, 0, 0, 3.53, 1.17, , , , 
1150.053, 1, 0, 0, , , 1, 1, , 1, 18.8, -0.65, -2.13, -0.06, 0.98, 0, 0, 0, 4.5, 1.54, , , , 
1150.261, 1, 0, 0, , , 1, 1, , 1, 18.8, -0.66, -2.15, -0.03, 0.98, 0, 0, 0, 4.96, 4, , , , 
1150.389, 1, 0, 0, , , 1, 1, , 1, 18.81, -0.67, -2.19, -0.06, 0.98, 0, 0, 0, 6.8, 1.94, , , , 
1150.565, 1, 0, 0, , , 1, 1, , 1, 18.8, -0.66, -2.17, 0.05, 0.98, 0, 0, 0, 5.48, 3.56, , , , 
1150.677, 1, 0, 0, , , 1, 1, , 1, 18.8, -0.66, -2.18, -0.04, 0.98, 0, 0, 0, 6.71, 3.54, , , , 
1150.837, 1, 0, 0, , , 1, 1, , 1, 18.81, -0.67, -2.19, -0.05, 0.98, 0, 0, 0, 5.2, 4.13, , , , 
1150.965, 1, 0, 0, , , 1, 1, , 1, 18.81, -0.67, -2.21, -0.03, 0.98, 0, 0, 0, 4.51, 1.93, , , , 
1151.125, 1, 0, 0, , , 1, 1, , 1, 18.82, -0.68, -2.24, -0.08, 0.98, 0, 0, 0, 4.35, 2.02, , , , 
1151.237, 1, 0, 0, , , 1, 1, , 1, 18.82, -0.69, -2.28, -0.12, 0.98, 0, 0, 0, 5, 0.91, , , , 
1151.381, 1, 0, 0, , , 1, 1, , 1, 18.82, -0.71, -2.32, -0.11, 0.99, 0, 0, 0, 3.91, 1.13, , , , 
1151.509, 1, 0, 0, , , 1, 1, , 1, 18.83, -0.72, -2.37, -0.09, 0.98, 0, 0, 0, 4.01, 2.28, , , , 
1151.653, 1, 0, 0, , , 1, 1, , 1, 18.83, -0.74, -2.41, -0.11, 0.98, 0, 0, 0, 3.89, 2.22, , , , 
1151.781, 1, 0, 0, , , 1, 1, , 1, 18.84, -0.75, -2.46, -0.09, 0.98, 0, 0, 0, 4.85, 1.75, , , , 
1151.925, 1, 0, 0, , , 1, 1, , 1, 18.84, -0.76, -2.51, -0.09, 0.98, 0, 0, 0, 6.1, 2.31, , , , 
1152.038, 1, 0, 0, , , 1, 1, , 1, 18.84, -0.78, -2.54, -0.13, 0.98, 0, 0, 0, 5.32, 3.47, , , , 
1152.197, 1, 0, 0, , , 1, 1, , 1, 18.84, -0.79, -2.58, -0.05, 0.98, 0, 0, 0, 5.96, 3.85, , , , 
1152.405, 1, 0, 0, , , 1, 1, , 1, 18.85, -0.8, -2.62, -0.04, 0.98, 0, 0, 0, 4.97, 3.73, , , , 
1152.533, 1, 0, 0, , , 1, 1, , 1, 18.85, -0.81, -2.64, -0.04, 0.98, 0, 0, 0, 4.68, 3.36, , , , 
1152.693, 1, 0, 0, , , 1, 1, , 1, 18.85, -0.81, -2.66, -0.01, 0.98, 0, 0, 0, 4.52, 2.59, , , , 
1152.805, 1, 0, 0, , , 1, 1, , 1, 18.86, -0.82, -2.68, -0.06, 0.98, 0, 0, 0, 3.21, 1.65, , , , 
1152.964, 1, 0, 0, , , 1, 1, , 1, 18.86, -0.82, -2.69, 0, 0.98, 0, 0, 0, 4.18, 1.59, , , , 
1153.093, 1, 0, 0, , , 1, 1, , 1, 18.86, -0.82, -2.69, -0.01, 0.98, 0, 0, 0, 4.66, 1.45, , , , 
1153.268, 1, 0, 0, , , 1, 1, , 1, 18.86, -0.82, -2.7, -0.01, 0.98, 0, 0, 0, 3.8, 2.19, , , , 
1153.38, 1, 0, 0, , , 1, 1, , 1, 18.87, -0.83, -2.71, -0.05, 0.98, 0, 0, 0, 3.92, 2.11, , , , 
1153.525, 1, 0, 0, , , 1, 1, , 1, 18.87, -0.83, -2.71, 0.02, 0.98, 0, 0, 0, 4.77, 2.7, , , , 
1153.652, 1, 0, 0, , , 1, 1, , 1, 18.87, -0.83, -2.73, -0.01, 0.98, 0, 0, 0, 5.34, 1.25, , , , 
1153.86, 1, 0, 0, , , 1, 1, , 1, 18.87, -0.84, -2.76, -0.05, 0.98, 0, 0, 0, 4.74, 2.91, , , , 
1154.452, 1, 0, 0, , , 1, 1, , 1, 18.89, -0.83, -2.73, 0.02, 0.97, 0, 0, 0, 5.63, 0.72, , , , 
1154.597, 1, 0, 0, , , 1, 1, , 1, 18.89, -0.82, -2.68, 0.09, 0.98, 0, 0, 0, 4.24, 2.71, , , , 
1154.868, 1, 0, 0, , , 1, 1, , 1, 18.89, -0.8, -2.63, 0.07, 0.99, 0, 0, 0, 2.96, 3.28, , , , 
1155.108, 1, 0, 0, , , 1, 1, , 1, 18.9, -0.78, -2.58, 0.06, 0.98, 0, 0, 0, 3.65, 3.17, , , , 
1155.397, 1, 0, 0, , , 1, 1, , 1, 18.9, -0.78, -2.55, 0.01, 0.98, 0, 0, 0, 3.01, 1.39, , , , 
1155.508, 1, 0, 0, , , 1, 1, , 1, 18.87, -0.72, -2.36, 0.54, 0.98, 0, 0, 0, 6.09, 1.9, , , , 
1155.797, 1, 0, 0, , , 1, 1, , 1, 18.89, -0.64, -2.1, 0.28, 0.98, 0, 0, 0, 4.54, 1.37, , , , 
1155.94, 1, 0, 0, , , 1, 1, , 1, 18.9, -0.61, -2.01, 0.19, 0.98, 0, 0, 0, 4.31, 2.7, , , , 
1156.052, 1, 0, 0, , , 1, 1, , 1, 18.9, -0.59, -1.94, 0.18, 0.98, 0, 0, 0, 4.78, 1.6, , , , 
1156.197, 1, 0, 0, , , 1, 1, , 1, 18.91, -0.58, -1.89, 0.1, 0.98, 0, 0, 0, 4.27, 2.37, , , , 
1156.324, 1, 0, 0, , , 1, 1, , 1, 18.91, -0.56, -1.83, 0.17, 0.98, 0, 0, 0, 5.07, 3.48, , , , 
1156.596, 1, 0, 0, , , 1, 1, , 1, 18.92, -0.53, -1.73, 0.12, 0.99, 0, 0, 0, 4.38, 1.81, , , , 
1156.74, 1, 0, 0, , , 1, 1, , 1, 18.93, -0.51, -1.68, 0.11, 0.98, 0, 0, 0, 5.54, 2.77, , , , 
1156.996, 1, 0, 0, , , 1, 1, , 1, 18.93, -0.5, -1.65, 0.03, 0.98, 0, 0, 0, 3.71, 2.07, , , , 
1157.108, 1, 0, 0, , , 1, 1, , 1, 18.93, -0.49, -1.6, 0.12, 0.98, 0, 0, 0, 4.99, 2.13, , , , 
1157.268, 1, 0, 0, , , 1, 1, , 1, 18.94, -0.47, -1.54, 0.13, 0.98, 0, 0, 0, 4.73, 1.68, , , , 
1157.396, 1, 0, 0, , , 1, 1, , 1, 18.94, -0.43, -1.42, 0.29, 0.98, 0, 0, 0, 3.89, 1.85, , , , 
1157.604, 1, 0, 0, , , 1, 1, , 1, 18.94, -0.38, -1.26, 0.22, 0.98, 0, 0, 0, 5.34, 2.79, , , , 
1157.812, 1, 0, 0, , , 1, 1, , 1, 18.95, -0.29, -0.94, 0.44, 0.98, 0, 0, 0, 4.78, 1.31, , , , 
1157.924, 1, 0, 0, , , 1, 1, , 1, 18.95, -0.24, -0.8, 0.41, 0.98, 0, 0, 0, 4.4, 2.47, , , , 
1158.196, 1, 0, 0, , , 1, 1, , 1, 18.96, -0.17, -0.56, 0.25, 0.98, 0, 0, 0, 4.8, 2.36, , , , 
1158.34, 1, 0, 0, , , 1, 1, , 1, 18.96, -0.14, -0.45, 0.22, 0.98, 0, 0, 0, 5.12, 2.28, , , , 
1158.548, 1, 0, 0, , , 1, 1, , 1, 18.96, -0.12, -0.38, 0.12, 0.99, 0, 0, 0, 4.13, 1.76, , , , 
1158.82, 1, 0, 0, , , 1, 1, , 1, 18.97, -0.07, -0.22, 0.2, 0.98, 0, 0, 0, 4.53, 2.87, , , , 
1158.963, 1, 0, 0, , , 1, 1, , 1, 18.97, -0.03, -0.11, 0.26, 0.98, 0, 0, 0, 5.33, 1.48, , , , 
1159.124, 1, 0, 0, , , 1, 1, , 1, 18.97, 0, -0.01, 0.17, 0.98, 0, 0, 0, 4.34, 2.85, , , , 
1159.683, 1, 0, 0, , , 1, 1, , 1, 18.99, 0.14, 0.46, 0.25, 0.98, 0, 0, 0, 5.25, 1.11, , , , 
1159.795, 1, 0, 0, , , 1, 1, , 1, 18.99, 0.17, 0.55, 0.25, 0.98, 0, 0, 0, 3.7, 2.42, , , , 
1159.956, 1, 0, 0, , , 1, 1, , 1, 18.99, 0.19, 0.62, 0.11, 0.98, 0, 0, 0, 5.66, 2.25, , , , 
1160.067, 1, 0, 0, , , 1, 1, , 1, 18.99, 0.2, 0.67, 0.13, 0.98, 0, 0, 0, 4.35, 2.08, , , , 
1160.211, 1, 0, 0, , , 1, 1, , 1, 19, 0.21, 0.7, 0.09, 0.98, 0, 0, 0, 4.58, 1.74, , , , 
1160.34, 1, 0, 0, , , 1, 1, , 1, 19, 0.21, 0.7, 0.04, 0.98, 0, 0, 0, 5.28, 2.11, , , , 
1160.483, 1, 0, 0, , , 1, 1, , 1, 19, 0.21, 0.7, 0.02, 0.98, 0, 0, 0, 3.49, 2.42, , , , 
1160.595, 1, 0, 0, , , 1, 1, , 1, 19.01, 0.21, 0.69, -0.01, 0.98, 0, 0, 0, 4.94, 1.56, , , , 
1160.739, 1, 0, 0, , , 1, 1, , 1, 19.01, 0.2, 0.67, -0.04, 0.98, 0, 0, 0, 5.61, 2.54, , , , 
1160.963, 1, 0, 0, , , 1, 1, , 1, 19.01, 0.2, 0.65, 0, 0.98, 0, 0, 0, 4.82, 2.03, , , , 
1161.091, 1, 0, 0, , , 1, 1, , 1, 19.01, 0.19, 0.64, -0.05, 0.98, 0, 0, 0, 4.96, 2.13, , , , 
1161.235, 1, 0, 0, , , 1, 1, , 1, 19.02, 0.19, 0.61, -0.03, 0.98, 0, 0, 0, 4.28, 2.3, , , , 
1161.38, 1, 0, 0, , , 1, 1, , 1, 19.02, 0.17, 0.57, -0.11, 0.99, 0, 0, 0, 3.52, 1.05, , , , 
1161.555, 1, 0, 0, , , 1, 1, , 1, 19.03, 0.16, 0.52, -0.07, 0.98, 0, 0, 0, 4.85, 1.68, , , , 
1161.668, 1, 0, 0, , , 1, 1, , 1, 19.03, 0.14, 0.47, -0.15, 0.98, 0, 0, 0, 4.6, 1.94, , , , 
1161.812, 1, 0, 0, , , 1, 1, , 1, 19.03, 0.13, 0.42, -0.08, 0.98, 0, 0, 0, 3.78, 1.74, , , , 
1161.939, 1, 0, 0, , , 1, 1, , 1, 19.04, 0.12, 0.38, -0.11, 0.98, 0, 0, 0, 5.14, 1.62, , , , 
1162.083, 1, 0, 0, , , 1, 1, , 1, 19.04, 0.11, 0.36, -0.07, 0.98, 0, 0, 0, 4.34, 2.1, , , , 
1162.211, 1, 0, 0, , , 1, 1, , 1, 19.04, 0.11, 0.36, 0, 0.98, 0, 0, 0, 4.17, 1.45, , , , 
1162.355, 1, 0, 0, , , 1, 1, , 1, 19.04, 0.12, 0.38, 0.04, 0.98, 0, 0, 0, 4.8, 2.48, , , , 
1162.483, 1, 0, 0, , , 1, 1, , 1, 19.04, 0.13, 0.42, 0.05, 0.98, 0, 0, 0, 5.09, 2.11, , , , 
1162.691, 1, 0, 0, , , 1, 1, , 1, 19.05, 0.13, 0.43, 0.01, 0.98, 0, 0, 0, 4.74, 1.99, , , , 
1162.884, 1, 0, 0, , , 1, 1, , 1, 19.06, 0.15, 0.48, 0.09, 0.98, 0, 0, 0, 4.48, 2.07, , , , 
1163.379, 1, 0, 0, , , 1, 1, , 1, 19.07, 0.14, 0.47, -0.02, 0.98, 0, 0, 0, 3.92, 2.05, , , , 
1163.683, 1, 0, 0, , , 1, 1, , 1, 19.07, 0.14, 0.45, -0.01, 0.98, 0, 0, 0, 4.79, 2.43, , , , 
1163.955, 1, 0, 0, , , 1, 1, , 1, 19.08, 0.13, 0.42, -0.05, 0.98, 0, 0, 0, 4.93, 2.04, , , , 
1164.083, 1, 0, 0, , , 1, 1, , 1, 19.08, 0.12, 0.38, -0.11, 0.99, 0, 0, 0, 4.05, 1.81, , , , 
1164.227, 1, 0, 0, , , 1, 1, , 1, 19.08, 0.11, 0.35, -0.1, 0.98, 0, 0, 0, 4.83, 2.02, , , , 
1164.358, 1, 0, 0, , , 1, 1, , 1, 19.08, 0.1, 0.31, -0.11, 0.98, 0, 0, 0, 4.71, 2.42, , , , 
1164.499, 1, 0, 0, , , 1, 1, , 1, 19.09, 0.08, 0.27, -0.12, 0.98, 0, 0, 0, 4.49, 1.88, , , , 
1164.611, 1, 0, 0, , , 1, 1, , 1, 19.09, 0.07, 0.22, -0.11, 0.98, 0, 0, 0, 4.26, 1.34, , , , 
1164.771, 1, 0, 0, , , 1, 1, , 1, 19.09, 0.05, 0.18, -0.1, 0.98, 0, 0, 0, 5.07, 2.66, , , , 
1164.883, 1, 0, 0, , , 1, 1, , 1, 19.09, 0.04, 0.14, -0.08, 0.98, 0, 0, 0, 3.87, 1.25, , , , 
1165.026, 1, 0, 0, , , 1, 1, , 1, 19.1, 0.03, 0.1, -0.06, 0.98, 0, 0, 0, 4.24, 1.57, , , , 
1165.299, 1, 0, 0, , , 1, 1, , 1, 19.1, 0.01, 0.04, -0.07, 0.98, 0, 0, 0, 3.72, 1.11, , , , 
1165.507, 1, 0, 0, , , 1, 1, , 1, 19.11, 0, -0.01, -0.07, 0.98, 0, 0, 0, 4.69, 2.65, , , , 
1165.65, 1, 0, 0, , , 1, 1, , 1, 19.11, -0.02, -0.06, -0.12, 0.98, 0, 0, 0, 5.28, 2.08, , , , 
1165.826, 1, 0, 0, , , 1, 1, , 1, 19.11, -0.03, -0.11, -0.08, 0.98, 0, 0, 0, 4.1, 1.94, , , , 
1166.082, 1, 0, 0, , , 1, 1, , 1, 19.12, -0.07, -0.23, -0.16, 0.98, 1, 47.98688889, -81.84855652, 4.69, 2.88, , , , 
1166.227, 1, 0, 0, , , 1, 1, , 1, 19.12, -0.09, -0.28, -0.11, 0.99, 1, 47.98688889, -81.84855652, 4.33, 1.62, , , , 
1166.371, 1, 0, 0, , , 1, 1, , 1, 19.12, -0.1, -0.33, -0.06, 0.98, 1, 47.98688889, -81.84855652, 5.22, 2.67, , , , 
1167.17, 1, 0, 0, , , 1, 1, , 1, 19.14, -0.13, -0.44, -0.04, 0.98, 1, 47.98688889, -81.84855652, 4.72, 2.54, , , , 
1167.298, 1, 0, 0, , , 1, 1, , 1, 19.14, -0.14, -0.46, -0.07, 0.98, 1, 47.98688889, -81.84855652, 4.25, 1.48, , , , 
1167.443, 1, 0, 0, , , 1, 1, , 1, 19.14, -0.14, -0.47, -0.03, 0.98, 1, 47.98688889, -81.84855652, 3.83, 1.76, , , , 
1167.65, 1, 0, 0, , , 1, 1, , 1, 19.14, -0.15, -0.5, -0.07, 0.98, 1, 47.98688889, -81.84855652, 4.85, 1.91, , , , 
1167.795, 1, 0, 0, , , 1, 1, , 1, 19.15, -0.16, -0.54, -0.1, 0.98, 1, 47.98688889, -81.84855652, 4.23, 1.45, , , , 
1167.954, 1, 0, 0, , , 1, 1, , 1, 19.15, -0.17, -0.57, -0.08, 0.98, 1, 47.98688889, -81.84855652, 4.32, 2.22, , , , 
1168.178, 1, 0, 0, , , 1, 1, , 1, 19.15, -0.18, -0.6, -0.06, 0.98, 1, 47.9868927, -81.84855652, 4.92, 2.28, , , , 
1168.354, 1, 0, 0, , , 1, 1, , 1, 19.16, -0.21, -0.68, -0.15, 0.98, 1, 47.9868927, -81.84855652, 4.69, 2.19, , , , 
1168.514, 1, 0, 0, , , 1, 1, , 1, 19.16, -0.22, -0.71, -0.04, 0.98, 1, 47.9868927, -81.84855652, 4.66, 2.13, , , , 
1168.627, 1, 0, 0, , , 1, 1, , 1, 19.16, -0.22, -0.74, -0.04, 0.98, 1, 47.9868927, -81.84855652, 3.83, 1.91, , , , 
1168.898, 1, 0, 0, , , 1, 1, , 1, 19.17, -0.24, -0.8, -0.09, 0.98, 1, 47.9868927, -81.84855652, 4.52, 2.14, , , , 
1169.042, 1, 0, 0, , , 1, 1, , 1, 19.17, -0.25, -0.83, -0.1, 0.98, 1, 47.98689651, -81.84855652, 4.29, 1.77, , , , 
1169.17, 1, 0, 0, , , 1, 1, , 1, 19.17, -0.27, -0.88, -0.14, 0.98, 1, 47.98689651, -81.84855652, 4.88, 2.51, , , , 
1169.315, 1, 0, 0, , , 1, 1, , 1, 19.18, -0.28, -0.92, -0.07, 0.98, 1, 47.98689651, -81.84855652, 4.1, 2, , , , 
1169.426, 1, 0, 0, , , 1, 1, , 1, 19.18, -0.29, -0.95, -0.07, 0.98, 1, 47.98689651, -81.84855652, 4.74, 1.74, , , , 
1169.57, 1, 0, 0, , , 1, 1, , 1, 19.18, -0.3, -0.98, -0.07, 0.98, 1, 47.98689651, -81.84855652, 4.82, 2.39, , , , 
1169.794, 1, 0, 0, , , 1, 1, , 1, 19.18, -0.31, -1.02, -0.05, 0.98, 1, 47.98689651, -81.84855652, 3.97, 1.59, , , , 
1170.082, 1, 0, 0, , , 1, 1, , 1, 19.19, -0.32, -1.06, -0.05, 0.98, 1, 47.98689651, -81.84855652, 4.55, 2.31, , , , 
1170.226, 1, 0, 0, , , 1, 1, , 1, 19.19, -0.33, -1.09, -0.08, 0.99, 1, 47.98689651, -81.84855652, 4.13, 1.33, , , , 
1170.387, 1, 0, 0, , , 1, 1, , 1, 19.19, -0.34, -1.12, -0.06, 0.98, 1, 47.98689651, -81.84855652, 4.68, 2.1, , , , 
1170.642, 1, 0, 0, , , 1, 1, , 1, 19.2, -0.35, -1.16, -0.06, 0.98, 1, 47.98689651, -81.84855652, 4.41, 1.45, , , , 
1170.77, 1, 0, 0, , , 1, 1, , 1, 19.2, -0.36, -1.18, -0.08, 0.98, 1, 47.98689651, -81.84855652, 4.55, 2.42, , , , 
1170.914, 1, 0, 0, , , 1, 1, , 1, 19.2, -0.36, -1.18, -0.01, 0.98, 1, 47.98689651, -81.84855652, 4.35, 1.91, , , , 
1171.041, 1, 0, 0, , , 1, 1, , 1, 19.21, -0.36, -1.18, 0.01, 0.98, 1, 47.98690033, -81.84855652, 3.95, 1.62, , , , 
1171.186, 1, 0, 0, , , 1, 1, , 1, 19.21, -0.35, -1.16, 0.05, 0.98, 1, 47.98690033, -81.84855652, 4.74, 2.33, , , , 
1171.297, 1, 0, 0, , , 1, 1, , 1, 19.21, -0.34, -1.12, 0.07, 0.98, 1, 47.98690033, -81.84855652, 4.38, 1.65, , , , 
1171.457, 1, 0, 0, , , 1, 1, , 1, 19.21, -0.33, -1.08, 0.07, 0.98, 1, 47.98690033, -81.84855652, 4.28, 1.62, , , , 
1171.57, 1, 0, 0, , , 1, 1, , 1, 19.22, -0.31, -1.03, 0.14, 0.98, 1, 47.98690033, -81.84855652, 4.88, 2.48, , , , 
1171.713, 1, 0, 0, , , 1, 1, , 1, 19.22, -0.3, -0.98, 0.09, 0.98, 1, 47.98690033, -81.84855652, 4.18, 1.99, , , , 
1171.938, 1, 0, 0, , , 1, 1, , 1, 19.22, -0.28, -0.93, 0.07, 0.98, 1, 47.98690033, -81.84855652, 4.71, 1.94, , , , 
1172.049, 1, 0, 0, , , 1, 1, , 1, 19.22, -0.28, -0.92, 0.01, 0.98, 1, 47.98690414, -81.84855652, 4.98, 2.2, , , , 
1172.913, 1, 0, 0, , , 1, 1, , 1, 19.24, -0.3, -0.97, -0.02, 0.98, 1, 47.98690414, -81.84855652, 4.49, 2.19, , , , 
1173.058, 1, 0, 0, , , 1, 1, , 1, 19.24, -0.31, -1.01, -0.06, 0.98, 1, 47.98690414, -81.84855652, 4.03, 1.91, , , , 
1173.169, 1, 0, 0, , , 1, 1, , 1, 19.24, -0.31, -1.03, -0.03, 0.98, 1, 47.98690414, -81.84855652, 5.2, 2.42, , , , 
1173.313, 1, 0, 0, , , 1, 1, , 1, 19.24, -0.32, -1.04, -0.05, 0.98, 1, 47.98690414, -81.84855652, 4.41, 1.65, , , , 
1173.585, 1, 0, 0, , , 1, 1, , 1, 19.25, -0.3, -1, 0.06, 0.98, 1, 47.98690414, -81.84855652, 4.95, 2.2, , , , 
1173.809, 1, 0, 0, , , 1, 1, , 1, 19.25, -0.3, -0.98, 0, 0.98, 1, 47.98690414, -81.84855652, 4.37, 1.77, , , , 
1173.937, 1, 0, 0, , , 1, 1, , 1, 19.25, -0.29, -0.96, 0.07, 0.98, 1, 47.98690414, -81.84855652, 4.68, 2.11, , , , 
1174.081, 1, 0, 0, , , 1, 1, , 1, 19.25, -0.28, -0.91, 0.08, 0.98, 1, 47.98689651, -81.84856415, 4.7, 2.45, , , , 
1174.225, 1, 0, 0, , , 1, 1, , 1, 19.25, -0.27, -0.89, 0.06, 0.98, 1, 47.98689651, -81.84856415, 4.37, 2.08, , , , 
1174.385, 1, 0, 0, , , 1, 1, , 1, 19.26, -0.26, -0.87, 0.04, 0.98, 1, 47.98689651, -81.84856415, 4.86, 2.28, , , , 
1174.513, 1, 0, 0, , , 1, 1, , 1, 19.26, -0.26, -0.84, 0.03, 0.98, 1, 47.98689651, -81.84856415, 4.6, 2.08, , , , 
1174.658, 1, 0, 0, , , 1, 1, , 1, 19.26, -0.24, -0.8, 0.11, 0.98, 1, 47.98689651, -81.84856415, 4.12, 1.94, , , , 
1174.785, 1, 0, 0, , , 1, 1, , 1, 19.27, -0.23, -0.77, 0.05, 0.98, 1, 47.98689651, -81.84856415, 4.63, 2.13, , , , 
1174.929, 1, 0, 0, , , 1, 1, , 1, 19.27, -0.22, -0.74, 0.04, 0.98, 1, 47.98689651, -81.84856415, 4.38, 1.62, , , , 
1175.057, 1, 0, 0, , , 1, 1, , 1, 19.27, -0.22, -0.71, 0.03, 0.98, 1, 47.98689651, -81.84856415, 4.17, 1.62, , , , 
1175.313, 1, 0, 0, , , 1, 1, , 1, 19.25, -0.15, -0.5, 0.26, 0.98, 1, 47.98689651, -81.84856415, 4.2, 1.93, , , , 
1175.457, 1, 0, 0, , , 1, 1, , 1, 19.26, -0.13, -0.42, 0.16, 0.98, 1, 47.98689651, -81.84856415, 4.52, 2.02, , , , 
1175.585, 1, 0, 0, , , 1, 1, , 1, 19.26, -0.11, -0.36, 0.16, 0.98, 1, 47.98689651, -81.84856415, 4.59, 2.13, , , , 
1175.729, 1, 0, 0, , , 1, 1, , 1, 19.27, -0.1, -0.33, 0.06, 0.98, 1, 47.98689651, -81.84856415, 4.54, 2.08, , , , 
1176.065, 1, 0, 0, , , 1, 1, , 1, 19.28, -0.1, -0.32, 0.01, 0.98, 1, 47.98689651, -81.84856415, 4.58, 2.34, , , , 
1176.257, 1, 0, 0, , , 1, 1, , 1, 19.29, -0.09, -0.3, 0.04, 0.98, 1, 47.98689651, -81.84856415, 4.6, 2.11, , , , 
1176.513, 1, 0, 0, , , 1, 1, , 1, 19.29, -0.09, -0.3, 0, 0.98, 1, 47.98689651, -81.84856415, 4.77, 2.42, , , , 
1176.641, 1, 0, 0, , , 1, 1, , 1, 19.29, -0.09, -0.3, -0.01, 0.98, 1, 47.98689651, -81.84856415, 4.12, 2.28, , , , 
1176.801, 1, 0, 0, , , 1, 1, , 1, 19.3, -0.09, -0.31, -0.02, 0.98, 1, 47.98689651, -81.84856415, 5.2, 1.68, , , , 
1176.929, 1, 0, 0, , , 1, 1, , 1, 19.3, -0.09, -0.3, -0.02, 0.98, 1, 47.98689651, -81.84856415, 4.53, 1.91, , , , 
1177.185, 1, 0, 0, , , 1, 1, , 1, 19.3, -0.09, -0.3, -0.01, 0.98, 1, 47.98688889, -81.84856415, 4.33, 2.8, , , , 
1177.344, 1, 0, 0, , , 1, 1, , 1, 19.31, -0.09, -0.29, 0.01, 0.98, 1, 47.98688889, -81.84856415, 4.52, 2.28, , , , 
1177.456, 1, 0, 0, , , 1, 1, , 1, 19.31, -0.08, -0.28, 0.05, 0.98, 1, 47.98688889, -81.84856415, 5.08, 1.57, , , , 
1177.601, 1, 0, 0, , , 1, 1, , 1, 19.31, -0.08, -0.27, -0.02, 0.98, 1, 47.98688889, -81.84856415, 4.57, 1.77, , , , 
1177.728, 1, 0, 0, , , 1, 1, , 1, 19.31, -0.08, -0.28, -0.04, 0.98, 1, 47.98688889, -81.84856415, 3.95, 2.08, , , , 
1177.872, 1, 0, 0, , , 1, 1, , 1, 19.32, -0.09, -0.28, -0.05, 0.98, 1, 47.98688889, -81.84856415, 4.74, 1.93, , , , 
1178.08, 1, 0, 0, , , 1, 1, , 1, 19.32, -0.09, -0.29, 0.01, 0.98, 1, 47.98688889, -81.84856415, 4.66, 1.77, , , , 
1178.384, 1, 0, 0, , , 1, 1, , 1, 19.32, -0.09, -0.31, -0.01, 0.98, 1, 47.98688889, -81.84856415, 5.29, 2.31, , , , 
1178.657, 1, 0, 0, , , 1, 1, , 1, 19.33, -0.1, -0.33, -0.04, 0.98, 1, 47.98688889, -81.84856415, 4.79, 1.54, , , , 
1178.8, 1, 0, 0, , , 1, 1, , 1, 19.33, -0.1, -0.34, -0.02, 0.98, 1, 47.98688889, -81.84856415, 4.32, 2.05, , , , 
1178.944, 1, 0, 0, , , 1, 1, , 1, 19.33, -0.11, -0.35, -0.05, 0.98, 1, 47.98688889, -81.84856415, 4.74, 1.77, , , , 
1179.057, 1, 0, 0, , , 1, 1, , 1, 19.33, -0.11, -0.36, 0.01, 0.98, 1, 47.98688889, -81.84856415, 3.89, 2.59, , , , 
1179.2, 1, 0, 0, , , 1, 1, , 1, 19.34, -0.11, -0.37, -0.02, 0.98, 1, 47.98688889, -81.84856415, 4.91, 1.62, , , , 
1179.328, 1, 0, 0, , , 1, 1, , 1, 19.34, -0.12, -0.4, -0.1, 0.98, 1, 47.98688889, -81.84856415, 4.62, 2.72, , , , 
1179.473, 1, 0, 0, , , 1, 1, , 1, 19.34, -0.13, -0.43, -0.07, 0.98, 1, 47.98688889, -81.84856415, 5.03, 2.36, , , , 
1179.6, 1, 0, 0, , , 1, 1, , 1, 19.34, -0.14, -0.45, -0.05, 0.98, 1, 47.98688889, -81.84856415, 4.86, 2.02, , , , 
1179.744, 1, 0, 0, , , 1, 1, , 1, 19.34, -0.14, -0.47, -0.02, 0.98, 1, 47.98688889, -81.84856415, 4.49, 2.22, , , , 
1179.857, 1, 0, 0, , , 1, 1, , 1, 19.35, -0.15, -0.48, -0.06, 0.98, 1, 47.98688889, -81.84856415, 4.51, 1.7, , , , 
1180.016, 1, 0, 0, , , 1, 1, , 1, 19.35, -0.15, -0.5, -0.02, 0.98, 1, 47.98688889, -81.84856415, 4.04, 2.37, , , , 
1180.352, 1, 0, 0, , , 1, 1, , 1, 19.35, -0.16, -0.54, -0.04, 0.98, 1, 47.98688889, -81.84856415, 4.29, 2.25, , , , 
1180.512, 1, 0, 0, , , 1, 1, , 1, 19.36, -0.17, -0.56, -0.06, 0.98, 1, 47.98688889, -81.84856415, 5.01, 2.43, , , , 
1180.624, 1, 0, 0, , , 1, 1, , 1, 19.36, -0.17, -0.57, -0.04, 0.98, 1, 47.98688889, -81.84856415, 4.13, 2.63, , , , 
1180.8, 1, 0, 0, , , 1, 1, , 1, 19.37, -0.18, -0.58, -0.03, 0.98, 1, 47.98688889, -81.84856415, 4.77, 2.05, , , , 
1180.912, 1, 0, 0, , , 1, 1, , 1, 19.37, -0.18, -0.57, 0.04, 0.98, 1, 47.98688889, -81.84856415, 4.8, 2.02, , , , 
1181.088, 1, 0, 0, , , 1, 1, , 1, 19.37, -0.17, -0.57, 0.03, 0.98, 1, 47.98688889, -81.84856415, 4.55, 2.28, , , , 
1181.2, 1, 0, 0, , , 1, 1, , 1, 19.37, -0.17, -0.57, -0.04, 0.98, 1, 47.98688889, -81.84856415, 4.46, 1.77, , , , 
1181.887, 1, 0, 0, , , 1, 1, , 1, 19.39, -0.17, -0.56, 0, 0.98, 1, 47.98688889, -81.84856415, 5.66, 1.2, , , , 
1181.999, 1, 0, 0, , , 1, 1, , 1, 19.39, -0.18, -0.59, -0.08, 0.98, 1, 47.98688889, -81.84856415, 5.03, 2.99, , , , 
1182.16, 1, 0, 0, , , 1, 1, , 1, 19.39, -0.19, -0.61, -0.04, 0.99, 1, 47.98688889, -81.84856415, 1.33, 3.05, , , , 
1182.367, 1, 0, 0, , , 1, 1, , 1, 19.39, -0.2, -0.65, -0.03, 0.98, 1, 47.98688889, -81.84856415, 3.38, 2.19, , , , 
1182.655, 1, 0, 0, , , 1, 1, , 1, 19.4, -0.2, -0.67, -0.01, 0.98, 1, 47.98688889, -81.84856415, 4.91, 0.8, , , , 
1182.784, 1, 0, 0, , , 1, 1, , 1, 19.4, -0.2, -0.66, -0.01, 0.98, 1, 47.98688889, -81.84856415, 5.62, 1.14, , , , 
1182.912, 1, 0, 0, , , 1, 1, , 1, 19.4, -0.2, -0.65, 0.01, 0.98, 1, 47.98688889, -81.84856415, 3.9, 2.59, , , , 
1183.055, 1, 0, 0, , , 1, 1, , 1, 19.4, -0.2, -0.64, 0.03, 0.98, 1, 47.98688889, -81.84856415, 4.5, 2.23, , , , 
1183.216, 1, 0, 0, , , 1, 1, , 1, 19.4, -0.19, -0.62, 0.06, 0.98, 1, 47.98688889, -81.84856415, 4.78, 2.11, , , , 
1183.343, 1, 0, 0, , , 1, 1, , 1, 19.41, -0.18, -0.6, 0.05, 0.98, 1, 47.98688889, -81.84856415, 4.35, 2.08, , , , 
1183.487, 1, 0, 0, , , 1, 1, , 1, 19.41, -0.18, -0.59, 0, 0.98, 1, 47.98688889, -81.84856415, 4.78, 1.88, , , , 
1183.616, 1, 0, 0, , , 1, 1, , 1, 19.41, -0.18, -0.59, 0.01, 0.98, 1, 47.98688889, -81.84856415, 4.24, 2.34, , , , 
1183.759, 1, 0, 0, , , 1, 1, , 1, 19.41, -0.18, -0.58, 0.03, 0.98, 1, 47.98688889, -81.84856415, 4.49, 2.05, , , , 
1184.032, 1, 0, 0, , , 1, 1, , 1, 19.42, -0.18, -0.59, 0, 0.98, 1, 47.98688889, -81.84856415, 4.67, 2.11, , , , 
1184.143, 1, 0, 0, , , 1, 1, , 1, 19.42, -0.19, -0.61, -0.05, 0.98, 1, 47.98688889, -81.84856415, 4.44, 2.11, , , , 
1184.288, 1, 0, 0, , , 1, 1, , 1, 19.43, -0.2, -0.64, -0.04, 0.98, 1, 47.98688889, -81.84856415, 4.07, 2.06, , , , 
1184.417, 1, 0, 0, , , 1, 1, , 1, 19.43, -0.21, -0.68, -0.05, 0.98, 1, 47.98688889, -81.84856415, 4.8, 1.79, , , , 
1184.8, 1, 0, 0, , , 1, 1, , 1, 19.43, -0.23, -0.76, -0.06, 0.98, 1, 47.98688889, -81.84856415, 4.58, 2.28, , , , 
1185.087, 1, 0, 0, , , 1, 1, , 1, 19.44, -0.25, -0.83, -0.08, 0.98, 1, 47.98688889, -81.84856415, 4.66, 1.85, , , , 
1185.359, 1, 0, 0, , , 1, 1, , 1, 19.45, -0.28, -0.91, -0.1, 0.98, 1, 47.98688889, -81.84856415, 4.6, 2.45, , , , 
1185.631, 1, 0, 0, , , 1, 1, , 1, 19.45, -0.29, -0.96, -0.05, 0.98, 1, 47.98688889, -81.84856415, 4.8, 2.34, , , , 
1185.743, 1, 0, 0, , , 1, 1, , 1, 19.45, -0.3, -0.99, -0.09, 0.98, 1, 47.98688889, -81.84856415, 4.7, 2.08, , , , 
1185.887, 1, 0, 0, , , 1, 1, , 1, 19.45, -0.31, -1.02, -0.07, 0.98, 1, 47.98688889, -81.84856415, 4.12, 2.25, , , , 
1186.015, 1, 0, 0, , , 1, 1, , 1, 19.45, -0.32, -1.04, -0.06, 0.98, 1, 47.98688889, -81.84856415, 4.88, 2.19, , , , 
1186.159, 1, 0, 0, , , 1, 1, , 1, 19.46, -0.33, -1.07, -0.05, 0.98, 1, 47.98688889, -81.84856415, 4.49, 2.22, , , , 
1186.287, 1, 0, 0, , , 1, 1, , 1, 19.46, -0.33, -1.09, -0.02, 0.98, 1, 47.98688889, -81.84856415, 4.65, 2.22, , , , 
1186.431, 1, 0, 0, , , 1, 1, , 1, 19.46, -0.34, -1.1, -0.04, 0.98, 1, 47.98688889, -81.84856415, 4.76, 2.25, , , , 
1186.543, 1, 0, 0, , , 1, 1, , 1, 19.46, -0.34, -1.11, 0, 0.98, 1, 47.98688889, -81.84856415, 4.4, 2.31, , , , 
1186.703, 1, 0, 0, , , 1, 1, , 1, 19.46, -0.34, -1.12, -0.01, 0.98, 1, 47.98688889, -81.84856415, 4.4, 2.11, , , , 
1187.215, 1, 0, 0, , , 1, 1, , 1, 19.47, -0.34, -1.1, 0.01, 0.98, 1, 47.98688889, -81.84856415, 4.6, 2.5, , , , 
1187.327, 1, 0, 0, , , 1, 1, , 1, 19.47, -0.33, -1.09, 0.06, 0.98, 1, 47.98688889, -81.84856415, 4.91, 2.33, , , , 
1187.503, 1, 0, 0, , , 1, 1, , 1, 19.47, -0.34, -1.11, -0.05, 0.98, 1, 47.98688889, -81.84856415, 4.45, 2.27, , , , 
1187.775, 1, 0, 0, , , 1, 1, , 1, 19.47, -0.34, -1.12, -0.01, 0.98, 1, 47.98688889, -81.84856415, 4.43, 2.14, , , , 
1188.687, 1, 0, 0, , , 1, 1, , 1, 19.49, -0.31, -1.03, 0.03, 0.98, 1, 47.98688889, -81.84856415, 4.71, 1.74, , , , 
1188.895, 1, 0, 0, , , 1, 1, , 1, 19.49, -0.31, -1.02, 0, 0.98, 1, 47.98688889, -81.84856415, 4.49, 2.28, , , , 
1189.086, 1, 0, 0, , , 1, 1, , 1, 19.5, -0.31, -1, 0.02, 0.98, 1, 47.98688889, -81.84856415, 4.78, 2.31, , , , 
1189.374, 1, 0, 0, , , 1, 1, , 1, 19.5, -0.29, -0.96, 0.06, 0.98, 1, 47.98688889, -81.84856415, 4.94, 2.42, , , , 
1189.502, 1, 0, 0, , , 1, 1, , 1, 19.5, -0.28, -0.93, 0.05, 0.98, 1, 47.98688889, -81.84856415, 4.85, 2.1, , , , 
1189.918, 1, 0, 0, , , 1, 1, , 1, 19.51, -0.26, -0.84, 0.05, 0.98, 1, 47.98688889, -81.84856415, 4.52, 2.11, , , , 
1190.031, 1, 0, 0, , , 1, 1, , 1, 19.51, -0.25, -0.81, 0.11, 0.98, 1, 47.98688889, -81.84856415, 4.71, 2.08, , , , 
1190.174, 1, 0, 0, , , 1, 1, , 1, 19.52, -0.24, -0.78, 0.09, 0.98, 1, 47.98688889, -81.84856415, 4.52, 2.02, , , , 
1190.302, 1, 0, 0, , , 1, 1, , 1, 19.52, -0.23, -0.75, 0.1, 0.98, 1, 47.98688889, -81.84856415, 3.98, 2.22, , , , 
1190.447, 1, 0, 0, , , 1, 1, , 1, 19.52, -0.23, -0.74, 0.02, 0.98, 1, 47.98688889, -81.84856415, 4.77, 1.94, , , , 
1190.558, 1, 0, 0, , , 1, 1, , 1, 19.52, -0.22, -0.73, 0.06, 0.98, 1, 47.98688889, -81.84856415, 4.55, 2.39, , , , 
1190.783, 1, 0, 0, , , 1, 1, , 1, 19.52, -0.22, -0.71, 0.01, 0.98, 1, 47.98688889, -81.84856415, 4.52, 2.19, , , , 
1190.958, 1, 0, 0, , , 1, 1, , 1, 19.53, -0.21, -0.7, 0.04, 0.98, 1, 47.98688889, -81.84856415, 4.74, 2.25, , , , 
1191.214, 1, 0, 0, , , 1, 1, , 1, 19.53, -0.21, -0.68, 0.01, 0.98, 1, 47.98688889, -81.84856415, 4.32, 1.79, , , , 
1191.358, 1, 0, 0, , , 1, 1, , 1, 19.53, -0.2, -0.67, 0.04, 0.98, 1, 47.98688889, -81.84856415, 4.73, 2.7, , , , 
1191.518, 1, 0, 0, , , 1, 1, , 1, 19.53, -0.2, -0.67, -0.02, 0.98, 1, 47.98688889, -81.84856415, 4.52, 2.65, , , , 
1191.63, 1, 0, 0, , , 1, 1, , 1, 19.54, -0.21, -0.68, -0.06, 0.98, 1, 47.98688889, -81.84856415, 4.8, 1.74, , , , 
1191.774, 1, 0, 0, , , 1, 1, , 1, 19.54, -0.22, -0.71, -0.05, 0.98, 1, 47.98688889, -81.84856415, 4.58, 2.14, , , , 
1191.902, 1, 0, 0, , , 1, 1, , 1, 19.54, -0.23, -0.74, -0.05, 0.98, 1, 47.98688889, -81.84856415, 3.89, 2.1, , , , 
1192.046, 1, 0, 0, , , 1, 1, , 1, 19.54, -0.24, -0.77, -0.04, 0.98, 1, 47.98688889, -81.84856415, 4.26, 1.68, , , , 
1192.174, 1, 0, 0, , , 1, 1, , 1, 19.55, -0.24, -0.8, -0.02, 0.98, 1, 47.98688889, -81.84856415, 4.52, 2.71, , , , 
1192.318, 1, 0, 0, , , 1, 1, , 1, 19.55, -0.25, -0.81, -0.05, 0.98, 1, 47.98688889, -81.84856415, 4.81, 2.51, , , , 
1192.43, 1, 0, 0, , , 1, 1, , 1, 19.55, -0.24, -0.8, 0.06, 0.98, 1, 47.98688889, -81.84856415, 2.75, 3.55, , , , 
1192.59, 1, 0, 0, , , 1, 1, , 1, 19.55, -0.24, -0.8, -0.03, 0.98, 1, 47.98688889, -81.84856415, 4.37, 1.65, , , , 
1192.702, 1, 0, 0, , , 1, 1, , 1, 19.55, -0.25, -0.81, -0.07, 0.98, 1, 47.98688889, -81.84856415, 4.03, 2.88, , , , 
1192.926, 1, 0, 0, , , 1, 1, , 1, 19.56, -0.25, -0.84, -0.02, 0.98, 1, 47.98688889, -81.84856415, 3.56, 2.25, , , , 
1193.102, 1, 0, 0, , , 1, 1, , 1, 19.56, -0.26, -0.87, -0.08, 0.98, 1, 47.98688889, -81.84856415, 6.27, 1.11, , , , 
1193.342, 1, 0, 0, , , 1, 1, , 1, 19.56, -0.28, -0.91, -0.07, 0.98, 1, 47.98688889, -81.84856415, 5.48, 1.28, , , , 
1193.502, 1, 0, 0, , , 1, 1, , 1, 19.56, -0.28, -0.92, 0, 0.98, 1, 47.98688889, -81.84856415, 2.98, 3.07, , , , 
1193.662, 1, 0, 0, , , 1, 1, , 1, 19.56, -0.28, -0.93, -0.02, 0.98, 1, 47.98688889, -81.84856415, 5.45, 1.25, , , , 
1193.774, 1, 0, 0, , , 1, 1, , 1, 19.57, -0.29, -0.95, -0.1, 0.98, 1, 47.98688889, -81.84856415, 4.07, 2.54, , , , 
1193.918, 1, 0, 0, , , 1, 1, , 1, 19.57, -0.29, -0.96, -0.03, 0.98, 1, 47.98688889, -81.84856415, 4.74, 1.79, , , , 
1194.045, 1, 0, 0, , , 1, 1, , 1, 19.57, -0.3, -0.98, -0.06, 0.98, 1, 47.98688889, -81.84856415, 4.14, 2.45, , , , 
1194.19, 1, 0, 0, , , 1, 1, , 1, 19.57, -0.3, -0.99, -0.02, 0.98, 1, 47.98688889, -81.84856415, 4.49, 1.79, , , , 
1194.317, 1, 0, 0, , , 1, 1, , 1, 19.57, -0.3, -1, -0.03, 0.98, 1, 47.98688889, -81.84856415, 4.77, 2.02, , , , 
1194.445, 1, 0, 0, , , 1, 1, , 1, 19.58, -0.3, -0.99, -0.03, 0.98, 1, 47.98688889, -81.84856415, 4.49, 2.22, , , , 
1194.574, 1, 0, 0, , , 1, 1, , 1, 19.58, -0.3, -0.99, -0.01, 0.98, 1, 47.98688889, -81.84856415, 5.03, 2.08, , , , 
1194.733, 1, 0, 0, , , 1, 1, , 1, 19.58, -0.3, -0.98, 0.01, 0.98, 1, 47.98688889, -81.84856415, 4.21, 2.45, , , , 
1194.846, 1, 0, 0, , , 1, 1, , 1, 19.58, -0.3, -0.97, 0.04, 0.98, 1, 47.98688889, -81.84856415, 4.77, 2.14, , , , 
1195.053, 1, 0, 0, , , 1, 1, , 1, 19.58, -0.29, -0.95, 0.05, 0.98, 1, 47.98688889, -81.84856415, 4.76, 2.06, , , , 
1195.229, 1, 0, 0, , , 1, 1, , 1, 19.59, -0.29, -0.94, 0.02, 0.98, 1, 47.98688889, -81.84856415, 4.52, 1.91, , , , 
1195.63, 1, 0, 0, , , 1, 1, , 1, 19.59, -0.26, -0.84, 0.08, 0.98, 1, 47.98688889, -81.84856415, 4.69, 2.05, , , , 
1195.789, 1, 0, 0, , , 1, 1, , 1, 19.6, -0.24, -0.78, 0.14, 0.98, 1, 47.98688889, -81.84856415, 4.69, 2.48, , , , 
1195.917, 1, 0, 0, , , 1, 1, , 1, 19.6, -0.22, -0.71, 0.18, 0.98, 1, 47.98688889, -81.84856415, 4.89, 2.05, , , , 
1196.061, 1, 0, 0, , , 1, 1, , 1, 19.6, -0.2, -0.64, 0.16, 0.98, 1, 47.98688889, -81.84856415, 4.4, 2.36, , , , 
1196.189, 1, 0, 0, , , 1, 1, , 1, 19.6, -0.17, -0.57, 0.22, 0.98, 1, 47.98688889, -81.84856415, 4.12, 1.94, , , , 
1196.333, 1, 0, 0, , , 1, 1, , 1, 19.6, -0.15, -0.49, 0.15, 0.98, 1, 47.98688889, -81.84856415, 4.09, 1.73, , , , 
1196.445, 1, 0, 0, , , 1, 1, , 1, 19.6, -0.13, -0.41, 0.21, 0.98, 1, 47.98688889, -81.84856415, 4.15, 1.94, , , , 
1196.605, 1, 0, 0, , , 1, 1, , 1, 19.61, -0.11, -0.35, 0.14, 0.98, 1, 47.98688889, -81.84856415, 4.6, 1.77, , , , 
1196.814, 1, 0, 0, , , 1, 1, , 1, 19.59, -0.07, -0.24, 0.18, 0.98, 1, 47.98688889, -81.84856415, 3.97, 1.99, , , , 
1196.989, 1, 0, 0, , , 1, 1, , 1, 19.6, -0.02, -0.06, 0.29, 0.98, 1, 47.98688889, -81.84856415, 4.78, 1.4, , , , 
1197.133, 1, 0, 0, , , 1, 1, , 1, 19.61, 0.01, 0.02, 0.17, 0.98, 1, 47.98688889, -81.84856415, 3.89, 2.3, , , , 
1197.357, 1, 0, 0, , , 1, 1, , 1, 19.61, 0.03, 0.09, 0.07, 0.98, 1, 47.98688889, -81.84856415, 5.56, 2.2, , , , 
1197.485, 1, 0, 0, , , 1, 1, , 1, 19.62, 0.05, 0.16, 0.16, 0.98, 1, 47.98688889, -81.84856415, 4.09, 2.39, , , , 
1197.934, 1, 0, 0, , , 1, 1, , 1, 19.62, 0.09, 0.29, 0.09, 0.98, 1, 47.98688889, -81.84856415, 4.31, 2.22, , , , 
1198.733, 1, 0, 0, , , 1, 1, , 1, 19.64, 0.07, 0.22, -0.03, 0.98, 1, 47.98688889, -81.84856415, 4.49, 1.91, , , , 
1198.861, 1, 0, 0, , , 1, 1, , 1, 19.64, 0.05, 0.17, -0.13, 0.98, 1, 47.98688889, -81.84856415, 4.57, 2.22, , , , 
1199.005, 1, 0, 0, , , 1, 1, , 1, 19.64, 0.04, 0.14, -0.04, 0.98, 1, 47.98688889, -81.84856415, 4.89, 1.99, , , , 
1199.117, 1, 0, 0, , , 1, 1, , 1, 19.64, 0.04, 0.13, -0.01, 0.98, 1, 47.98688889, -81.84856415, 4.04, 2.48, , , , 
1199.277, 1, 0, 0, , , 1, 1, , 1, 19.65, 0.04, 0.13, 0, 0.98, 1, 47.98688889, -81.84856415, 4.54, 2.08, , , , 
1199.485, 1, 0, 0, , , 1, 1, , 1, 19.65, 0.05, 0.16, 0.04, 0.98, 1, 47.98688889, -81.84856415, 4.51, 1.93, , , , 
1199.613, 1, 0, 0, , , 1, 1, , 1, 19.65, 0.06, 0.19, 0.07, 0.98, 1, 47.98688889, -81.84856415, 4.58, 2.28, , , , 
1199.884, 1, 0, 0, , , 1, 1, , 1, 19.65, 0.05, 0.17, -0.03, 0.98, 1, 47.98688889, -81.84856415, 4.15, 2.22, , , , 
1200.077, 1, 0, 0, , , 1, 1, , 1, 19.65, 0.04, 0.14, -0.04, 0.98, 1, 47.98688889, -81.84856415, 4.41, 2.05, , , , 
1200.348, 1, 0, 0, , , 1, 1, , 1, 19.66, 0.03, 0.09, -0.05, 0.98, 1, 47.98688889, -81.84856415, 4.43, 2.13, , , , 
1200.461, 1, 0, 0, , , 1, 1, , 1, 19.66, 0.02, 0.07, -0.07, 0.98, 1, 47.98688889, -81.84856415, 4.77, 1.94, , , , 
1200.732, 1, 0, 0, , , 1, 1, , 1, 19.67, 0.02, 0.06, 0, 0.98, 1, 47.98688889, -81.84856415, 5.37, 2.59, , , , 
1201.004, 1, 0, 0, , , 1, 1, , 1, 19.67, 0.03, 0.11, 0.05, 0.98, 1, 47.98688889, -81.84856415, 4.2, 2.13, , , , 
1201.148, 1, 0, 0, , , 1, 1, , 1, 19.67, 0.04, 0.13, 0.06, 0.98, 1, 47.98688889, -81.84856415, 4.41, 2.08, , , , 
1201.261, 1, 0, 0, , , 1, 1, , 1, 19.68, 0.05, 0.15, 0.06, 0.98, 1, 47.98688889, -81.84856415, 4.18, 2.08, , , , 
1201.42, 1, 0, 0, , , 1, 1, , 1, 19.68, 0.06, 0.18, 0.03, 0.98, 1, 47.98688889, -81.84856415, 5, 1.74, , , , 
1201.9, 1, 0, 0, , , 1, 1, , 1, 19.69, 0.05, 0.18, -0.01, 0.98, 1, 47.98688889, -81.84856415, 4.4, 2.33, , , , 
1202.029, 1, 0, 0, , , 1, 1, , 1, 19.69, 0.05, 0.18, 0.03, 0.98, 1, 47.98688889, -81.84856415, 4.68, 1.57, , , , 
1202.204, 1, 0, 0, , , 1, 1, , 1, 19.69, 0.05, 0.16, 0, 0.98, 1, 47.98688889, -81.84856415, 4.86, 2.54, , , , 
1202.332, 1, 0, 0, , , 1, 1, , 1, 19.69, 0.04, 0.14, -0.05, 0.98, 1, 47.98688889, -81.84856415, 4.61, 2.19, , , , 
1202.477, 1, 0, 0, , , 1, 1, , 1, 19.69, 0.04, 0.13, -0.01, 0.98, 1, 47.98688889, -81.84856415, 4.32, 1.88, , , , 
1202.604, 1, 0, 0, , , 1, 1, , 1, 19.7, 0.03, 0.09, -0.09, 0.98, 1, 47.98688889, -81.84856415, 4.46, 2.28, , , , 
1202.749, 1, 0, 0, , , 1, 1, , 1, 19.7, 0.02, 0.07, -0.07, 0.98, 1, 47.98688889, -81.84856415, 4.26, 1.28, , , , 
1202.876, 1, 0, 0, , , 1, 1, , 1, 19.7, 0.01, 0.04, -0.05, 0.98, 1, 47.98688889, -81.84856415, 3.78, 2.02, , , , 
1203.02, 1, 0, 0, , , 1, 1, , 1, 19.7, 0, 0.02, -0.03, 0.98, 1, 47.98688889, -81.84856415, 4.63, 2.48, , , , 
1203.133, 1, 0, 0, , , 1, 1, , 1, 19.7, 0, 0, -0.01, 0.98, 1, 47.98688889, -81.84856415, 4.72, 1.45, , , , 
1203.276, 1, 0, 0, , , 1, 1, , 1, 19.71, 0, -0.01, -0.03, 0.98, 1, 47.98688889, -81.84856415, 4.4, 2.47, , , , 
1203.404, 1, 0, 0, , , 1, 1, , 1, 19.71, 0, -0.01, -0.02, 0.98, 1, 47.98688889, -81.84856415, 4.4, 2.68, , , , 
1204.06, 1, 0, 0, , , 1, 1, , 1, 19.72, 0, 0, 0, 0.98, 1, 47.98688889, -81.84856415, 4.32, 2.08, , , , 
1204.172, 1, 0, 0, , , 1, 1, , 1, 19.72, 0, 0.01, 0.03, 0.98, 1, 47.98688889, -81.84856415, 4.8, 2.59, , , , 
1204.333, 1, 0, 0, , , 1, 1, , 1, 19.72, 0.01, 0.04, 0.08, 0.98, 1, 47.98688889, -81.84856415, 4.43, 2.11, , , , 
1204.46, 1, 0, 0, , , 1, 1, , 1, 19.72, 0.02, 0.06, 0.06, 0.98, 1, 47.98688889, -81.84856415, 4.54, 1.34, , , , 
1204.62, 1, 0, 0, , , 1, 1, , 1, 19.72, 0.02, 0.07, 0.01, 0.98, 1, 47.98688889, -81.84856415, 4.44, 2.39, , , , 
1205.42, 1, 0, 0, , , 1, 1, , 1, 19.74, 0.01, 0.02, -0.02, 0.98, 1, 47.98688889, -81.84856415, 4.9, 2.63, , , , 
1205.916, 1, 0, 0, , , 1, 1, , 1, 19.74, 0.01, 0.04, 0, 0.98, 1, 47.98688889, -81.84856415, 4.8, 2.05, , , , 
1206.059, 1, 0, 0, , , 1, 1, , 1, 19.74, 0.01, 0.04, 0, 0.98, 1, 47.98688889, -81.84856415, 4.26, 2.08, , , , 
1206.236, 1, 0, 0, , , 1, 1, , 1, 19.74, 0.01, 0.03, 0, 0.98, 1, 47.98688889, -81.84856415, 4.8, 1.88, , , , 
1206.763, 1, 0, 0, , , 1, 1, , 1, 19.76, -0.01, -0.03, -0.04, 0.98, 1, 47.98688889, -81.84856415, 4.41, 2.62, , , , 
1206.892, 1, 0, 0, , , 1, 1, , 1, 19.76, -0.01, -0.03, 0, 0.98, 1, 47.98688889, -81.84856415, 5.23, 1.82, , , , 
1207.019, 1, 0, 0, , , 1, 1, , 1, 19.76, -0.01, -0.04, -0.01, 0.98, 1, 47.98688889, -81.84856415, 4.43, 2.48, , , , 
1207.147, 1, 0, 0, , , 1, 1, , 1, 19.76, -0.02, -0.05, -0.04, 0.98, 1, 47.98688889, -81.84856415, 4.63, 2.08, , , , 
1207.292, 1, 0, 0, , , 1, 1, , 1, 19.76, -0.02, -0.05, 0.02, 0.98, 1, 47.98688889, -81.84856415, 4.69, 1.4, , , , 
1207.419, 1, 0, 0, , , 1, 1, , 1, 19.76, -0.01, -0.05, 0.05, 0.98, 1, 47.98688889, -81.84856415, 4.55, 2.28, , , , 
1207.563, 1, 0, 0, , , 1, 1, , 1, 19.77, -0.01, -0.03, 0, 0.98, 1, 47.98688889, -81.84856415, 4.49, 2.45, , , , 
1207.899, 1, 0, 0, , , 1, 1, , 1, 19.77, 0, 0.01, 0.04, 0.98, 1, 47.98688889, -81.84856415, 5.06, 1.91, , , , 
1208.076, 1, 0, 0, , , 1, 1, , 1, 19.77, 0.01, 0.04, 0.06, 0.98, 1, 47.98688889, -81.84856415, 4.56, 2.2, , , , 
1208.187, 1, 0, 0, , , 1, 1, , 1, 19.77, 0.02, 0.07, 0.11, 0.98, 1, 47.98688889, -81.84856415, 4.63, 1.59, , , , 
1208.363, 1, 0, 0, , , 1, 1, , 1, 19.77, 0.03, 0.11, 0.07, 0.98, 1, 47.98688889, -81.84856415, 4.77, 2.85, , , , 
1208.475, 1, 0, 0, , , 1, 1, , 1, 19.78, 0.04, 0.15, 0.13, 0.98, 1, 47.98688889, -81.84856415, 5.15, 2.63, , , , 
1208.764, 1, 0, 0, , , 1, 1, , 1, 19.78, 0.07, 0.22, 0.09, 0.98, 1, 47.98688889, -81.84856415, 5.58, 3.11, , , , 
1209.019, 1, 0, 0, , , 1, 1, , 1, 19.78, 0.09, 0.29, 0.07, 0.98, 1, 47.98688889, -81.84856415, 4.57, 1.82, , , , 
1209.18, 1, 0, 0, , , 1, 1, , 1, 19.79, 0.1, 0.32, 0.05, 0.98, 1, 47.98688889, -81.84856415, 5.16, 2.39, , , , 
1209.435, 1, 0, 0, , , 1, 1, , 1, 19.79, 0.1, 0.33, 0, 0.98, 1, 47.98688889, -81.84856415, 4.16, 2.25, , , , 
1209.564, 1, 0, 0, , , 1, 1, , 1, 19.79, 0.1, 0.31, -0.03, 0.98, 1, 47.98688889, -81.84856415, 4.32, 2.74, , , , 
1209.819, 1, 0, 0, , , 1, 1, , 1, 19.79, 0.09, 0.3, -0.03, 0.98, 1, 47.98688889, -81.84856415, 4.56, 1.39, , , , 
1209.963, 1, 0, 0, , , 1, 1, , 1, 19.8, 0.08, 0.25, -0.09, 0.98, 1, 47.98688889, -81.84856415, 4.81, 2.91, , , , 
1210.091, 1, 0, 0, , , 1, 1, , 1, 19.8, 0.06, 0.21, -0.13, 0.98, 1, 47.98679352, -81.84859467, 4.4, 2.73, , , , 
1210.235, 1, 0, 0, , , 1, 1, , 1, 19.8, 0.06, 0.19, -0.02, 0.98, 1, 47.98679352, -81.84859467, 3.07, 2.67, , , , 
1210.363, 1, 0, 0, , , 1, 1, , 1, 19.8, 0.05, 0.18, -0.04, 0.98, 1, 47.98679352, -81.84859467, 6.71, 0.66, , , , 
1210.507, 1, 0, 0, , , 1, 1, , 1, 19.81, 0.06, 0.18, 0.04, 0.98, 1, 47.98679352, -81.84859467, 2.76, 2.25, , , , 
1210.635, 1, 0, 0, , , 1, 1, , 1, 19.81, 0.06, 0.18, -0.03, 0.98, 1, 47.98679352, -81.84859467, 4.94, 2.53, , , , 
1210.779, 1, 0, 0, , , 1, 1, , 1, 19.81, 0.06, 0.2, 0.01, 0.98, 1, 47.98679352, -81.84859467, 4.8, 3.44, , , , 
1211.003, 1, 0, 0, , , 1, 1, , 1, 19.81, 0.07, 0.23, 0.04, 0.98, 1, 47.98679352, -81.84859467, 4.66, 1.31, , , , 
1211.115, 1, 0, 0, , , 1, 1, , 1, 19.81, 0.08, 0.25, 0.06, 0.98, 1, 47.98679352, -81.84859467, 4.63, 2.37, , , , 
1211.291, 1, 0, 0, , , 1, 1, , 1, 19.81, 0.09, 0.3, 0.07, 0.98, 1, 47.98679352, -81.84859467, 5.57, 2.28, , , , 
1211.707, 1, 0, 0, , , 1, 1, , 1, 19.82, 0.16, 0.52, 0.16, 0.98, 1, 47.98679352, -81.84859467, 4.83, 2.05, , , , 
1211.851, 1, 0, 0, , , 1, 1, , 1, 19.82, 0.18, 0.58, 0.11, 0.98, 1, 47.98679352, -81.84859467, 4.09, 1.85, , , , 
1212.106, 1, 0, 0, , , 1, 1, , 1, 19.83, 0.21, 0.69, 0.11, 0.98, 1, 47.98679352, -81.84859467, 4.43, 2.68, , , , 
1212.378, 1, 0, 0, , , 1, 1, , 1, 19.83, 0.23, 0.76, 0.08, 0.98, 1, 47.98679352, -81.84859467, 4.96, 2.57, , , , 
1212.507, 1, 0, 0, , , 1, 1, , 1, 19.83, 0.24, 0.78, 0.07, 0.98, 1, 47.98679352, -81.84859467, 4.32, 2.33, , , , 
1212.651, 1, 0, 0, , , 1, 1, , 1, 19.83, 0.25, 0.8, 0.04, 0.98, 1, 47.98679352, -81.84859467, 4.52, 1.94, , , , 
1212.762, 1, 0, 0, , , 1, 1, , 1, 19.83, 0.25, 0.83, 0.02, 0.98, 1, 47.98679352, -81.84859467, 4.56, 2.22, , , , 
1212.923, 1, 0, 0, , , 1, 1, , 1, 19.83, 0.26, 0.86, 0.07, 0.98, 1, 47.98679352, -81.84859467, 4.8, 1.93, , , , 
1213.13, 1, 0, 0, , , 1, 1, , 1, 19.83, 0.27, 0.89, 0.05, 0.98, 1, 47.98679352, -81.84859467, 4.89, 2.11, , , , 
1213.259, 1, 0, 0, , , 1, 1, , 1, 19.84, 0.28, 0.92, 0.09, 0.98, 1, 47.98679352, -81.84859467, 4.58, 2.57, , , , 
1213.418, 1, 0, 0, , , 1, 1, , 1, 19.84, 0.29, 0.95, 0.05, 0.98, 1, 47.98679352, -81.84859467, 4.83, 1.77, , , , 
1213.53, 1, 0, 0, , , 1, 1, , 1, 19.84, 0.29, 0.97, 0.04, 0.98, 1, 47.98679352, -81.84859467, 4.83, 2.14, , , , 
1213.723, 1, 0, 0, , , 1, 1, , 1, 19.84, 0.3, 0.98, 0.05, 0.98, 1, 47.98679352, -81.84859467, 4.89, 2.74, , , , 
1213.978, 1, 0, 0, , , 1, 1, , 1, 19.85, 0.3, 0.99, 0.01, 0.98, 1, 47.98679352, -81.84859467, 4.32, 2.08, , , , 
1214.107, 1, 0, 0, , , 1, 1, , 1, 19.85, 0.3, 1, 0.04, 0.98, 1, 47.98679352, -81.84859467, 5.09, 2.08, , , , 
1214.25, 1, 0, 0, , , 1, 1, , 1, 19.85, 0.31, 1, 0.04, 0.98, 1, 47.98679352, -81.84859467, 4.44, 1.85, , , , 
1214.378, 1, 0, 0, , , 1, 1, , 1, 19.86, 0.31, 1, -0.04, 0.98, 1, 47.98679352, -81.84859467, 4.03, 2.28, , , , 
1214.602, 1, 0, 0, , , 1, 1, , 1, 19.86, 0.31, 1.01, -0.02, 0.98, 1, 47.98679352, -81.84859467, 4.8, 1.85, , , , 
1214.778, 1, 0, 0, , , 1, 1, , 1, 19.86, 0.31, 1, -0.03, 0.98, 1, 47.98679352, -81.84859467, 5.03, 1.65, , , , 
1214.906, 1, 0, 0, , , 1, 1, , 1, 19.86, 0.31, 1, -0.03, 0.98, 1, 47.98679352, -81.84859467, 3.84, 2.65, , , , 
1215.274, 1, 0, 0, , , 1, 1, , 1, 19.86, 0.3, 0.97, -0.04, 0.98, 1, 47.98679352, -81.84859467, 4.93, 2.03, , , , 
1215.547, 1, 0, 0, , , 1, 1, , 1, 19.87, 0.28, 0.92, -0.07, 0.99, 1, 47.98679352, -81.84859467, 4.02, 1.25, , , , 
1215.674, 1, 0, 0, , , 1, 1, , 1, 19.87, 0.27, 0.87, -0.12, 0.98, 1, 47.98679352, -81.84859467, 4.71, 2.05, , , , 
1215.85, 1, 0, 0, , , 1, 1, , 1, 19.87, 0.25, 0.81, -0.14, 0.98, 1, 47.98679352, -81.84859467, 4.06, 3.96, , , , 
1215.962, 1, 0, 0, , , 1, 1, , 1, 19.87, 0.22, 0.73, -0.23, 0.98, 1, 47.98679352, -81.84859467, 3.74, 1.39, , , , 
1216.25, 1, 0, 0, , , 1, 1, , 1, 19.86, 0.2, 0.67, -0.06, 0.98, 1, 47.98679352, -81.84859467, 4.55, 2.36, , , , 
1216.395, 1, 0, 0, , , 1, 1, , 1, 19.87, 0.2, 0.65, -0.01, 0.98, 1, 47.98679352, -81.84859467, 4.72, 2.28, , , , 
1216.522, 1, 0, 0, , , 1, 1, , 1, 19.87, 0.19, 0.62, -0.09, 0.98, 1, 47.98679352, -81.84859467, 4.69, 2.76, , , , 
1217.05, 1, 0, 0, , , 1, 1, , 1, 19.89, 0.15, 0.51, -0.07, 0.98, 1, 47.98679352, -81.84859467, 4.34, 1.79, , , , 
1217.194, 1, 0, 0, , , 1, 1, , 1, 19.89, 0.15, 0.49, 0.01, 0.98, 1, 47.98679352, -81.84859467, 5.04, 2.4, , , , 
1217.418, 1, 0, 0, , , 1, 1, , 1, 19.89, 0.15, 0.5, 0.01, 0.98, 1, 47.98679352, -81.84859467, 4.12, 2.42, , , , 
1217.802, 1, 0, 0, , , 1, 1, , 1, 19.9, 0.17, 0.57, 0.06, 0.98, 1, 47.98679352, -81.84859467, 4.4, 2.05, , , , 
1217.978, 1, 0, 0, , , 1, 1, , 1, 19.9, 0.18, 0.59, 0.05, 0.98, 1, 47.98679352, -81.84859467, 4.34, 1.79, , , , 
1218.089, 1, 0, 0, , , 1, 1, , 1, 19.9, 0.18, 0.6, 0.02, 0.98, 1, 47.98679352, -81.84859467, 5.13, 2.59, , , , 
1218.25, 1, 0, 0, , , 1, 1, , 1, 19.91, 0.18, 0.6, 0.02, 0.98, 1, 47.98679352, -81.84859467, 4.77, 1.79, , , , 
1218.393, 1, 0, 0, , , 1, 1, , 1, 19.91, 0.18, 0.59, -0.01, 0.98, 1, 47.98679352, -81.84859467, 4.43, 1.73, , , , 
1218.65, 1, 0, 0, , , 1, 1, , 1, 19.92, 0.16, 0.51, -0.09, 0.98, 1, 47.98679352, -81.84859467, 4.01, 1.8, , , , 
1218.809, 1, 0, 0, , , 1, 1, , 1, 19.92, 0.15, 0.48, -0.09, 0.98, 1, 47.98679352, -81.84859467, 4.72, 2.08, , , , 
1218.922, 1, 0, 0, , , 1, 1, , 1, 19.92, 0.13, 0.44, -0.15, 0.98, 1, 47.98679352, -81.84859467, 4.26, 2.31, , , , 
1219.065, 1, 0, 0, , , 1, 1, , 1, 19.92, 0.12, 0.4, -0.06, 0.98, 1, 47.98679352, -81.84859467, 4.92, 1.6, , , , 
1219.193, 1, 0, 0, , , 1, 1, , 1, 19.92, 0.11, 0.36, -0.07, 0.98, 1, 47.98679352, -81.84859467, 4.78, 2.77, , , , 
1219.338, 1, 0, 0, , , 1, 1, , 1, 19.92, 0.11, 0.35, -0.02, 0.98, 1, 47.98679352, -81.84859467, 4.58, 2.31, , , , 
1219.545, 1, 0, 0, , , 1, 1, , 1, 19.93, 0.11, 0.35, -0.01, 0.98, 1, 47.98679352, -81.84859467, 4.97, 2.22, , , , 
1219.833, 1, 0, 0, , , 1, 1, , 1, 19.93, 0.12, 0.39, 0.03, 0.98, 1, 47.98679352, -81.84859467, 5.04, 2.54, , , , 
1220.122, 1, 0, 0, , , 1, 1, , 1, 19.93, 0.13, 0.41, 0.02, 0.98, 1, 47.98679352, -81.84859467, 4.57, 2.59, , , , 
1220.233, 1, 0, 0, , , 1, 1, , 1, 19.94, 0.13, 0.42, -0.02, 0.98, 1, 47.98679352, -81.84859467, 4.29, 3.48, , , , 
1220.409, 1, 0, 0, , , 1, 1, , 1, 19.94, 0.13, 0.43, 0.01, 0.98, 1, 47.98679352, -81.84859467, 6.18, 1.48, , , , 
1220.522, 1, 0, 0, , , 1, 1, , 1, 19.94, 0.13, 0.43, 0.02, 0.98, 1, 47.98679352, -81.84859467, 2.95, 1.42, , , , 
1220.793, 1, 0, 0, , , 1, 1, , 1, 19.94, 0.13, 0.42, 0, 0.98, 1, 47.98679352, -81.84859467, 3.84, 1.25, , , , 
1220.937, 1, 0, 0, , , 1, 1, , 1, 19.94, 0.13, 0.42, -0.02, 0.98, 1, 47.98679352, -81.84859467, 4.54, 1.62, , , , 
1221.065, 1, 0, 0, , , 1, 1, , 1, 19.95, 0.12, 0.4, -0.06, 0.98, 1, 47.98679352, -81.84859467, 4.95, 2.28, , , , 
1221.209, 1, 0, 0, , , 1, 1, , 1, 19.95, 0.11, 0.37, -0.04, 0.98, 1, 47.98679352, -81.84859467, 4.58, 2.11, , , , 
1221.337, 1, 0, 0, , , 1, 1, , 1, 19.95, 0.11, 0.35, -0.03, 0.98, 1, 47.98679352, -81.84859467, 3.75, 2.45, , , , 
1221.481, 1, 0, 0, , , 1, 1, , 1, 19.95, 0.1, 0.32, -0.1, 0.98, 1, 47.98679352, -81.84859467, 5.45, 1.99, , , , 
1221.593, 1, 0, 0, , , 1, 1, , 1, 19.96, 0.09, 0.29, -0.12, 0.98, 1, 47.98679352, -81.84859467, 4.09, 2.45, , , , 
1221.849, 1, 0, 0, , , 1, 1, , 1, 19.96, 0.08, 0.27, -0.03, 0.98, 1, 47.98679352, -81.84859467, 4.6, 1.88, , , , 
1222.009, 1, 0, 0, , , 1, 1, , 1, 19.96, 0.08, 0.25, -0.02, 0.98, 1, 47.98679352, -81.84859467, 4.8, 1.99, , , , 
1222.281, 1, 0, 0, , , 1, 1, , 1, 19.97, 0.07, 0.24, -0.02, 0.98, 1, 47.98679352, -81.84859467, 5.47, 1.11, , , , 
1222.393, 1, 0, 0, , , 1, 1, , 1, 19.97, 0.08, 0.26, 0.07, 0.98, 1, 47.98679352, -81.84859467, 3.64, 2.85, , , , 
1222.537, 1, 0, 0, , , 1, 1, , 1, 19.97, 0.08, 0.25, -0.02, 0.98, 1, 47.98679352, -81.84859467, 4.16, 1.66, , , , 
1222.665, 1, 0, 0, , , 1, 1, , 1, 19.97, 0.07, 0.23, -0.09, 0.98, 1, 47.98679352, -81.84859467, 4.67, 2.65, , , , 
1222.809, 1, 0, 0, , , 1, 1, , 1, 19.97, 0.06, 0.19, -0.08, 0.98, 1, 47.98679352, -81.84859467, 4.8, 2.25, , , , 
1223.833, 1, 0, 0, , , 1, 1, , 1, 19.99, -0.06, -0.21, -0.12, 0.98, 1, 47.98679352, -81.84859467, 4, 2.36, , , , 
1223.961, 1, 0, 0, , , 1, 1, , 1, 19.99, -0.08, -0.27, -0.17, 0.98, 1, 47.98679352, -81.84859467, 5.26, 2.37, , , , 
1224.136, 1, 0, 0, , , 1, 1, , 1, 19.99, -0.1, -0.32, -0.1, 0.98, 1, 47.98679352, -81.84859467, 4.26, 2.22, , , , 
1224.36, 1, 0, 0, , , 1, 1, , 1, 19.99, -0.11, -0.37, -0.06, 0.98, 1, 47.98679352, -81.84859467, 5.06, 1.6, , , , 
1224.537, 1, 0, 0, , , 1, 1, , 1, 20, -0.13, -0.43, -0.13, 0.98, 1, 47.98679352, -81.84859467, 3.86, 1.19, , , , 
1224.681, 1, 0, 0, , , 1, 1, , 1, 20, -0.14, -0.45, -0.05, 0.98, 1, 47.98679352, -81.84859467, 4.43, 1.93, , , , 
1224.808, 1, 0, 0, , , 1, 1, , 1, 20, -0.13, -0.44, 0.05, 0.98, 1, 47.98679352, -81.84859467, 4.97, 2.22, , , , 
1225.225, 1, 0, 0, , , 1, 1, , 1, 20, -0.12, -0.38, 0.03, 0.98, 1, 47.98679352, -81.84859467, 4.98, 1.63, , , , 
1225.337, 1, 0, 0, , , 1, 1, , 1, 20.01, -0.11, -0.35, 0.12, 0.98, 1, 47.98679352, -81.84859467, 3.78, 2.14, , , , 
1225.496, 1, 0, 0, , , 1, 1, , 1, 20.01, -0.1, -0.32, 0.09, 0.98, 1, 47.98679352, -81.84859467, 4.97, 1.71, , , , 
1225.608, 1, 0, 0, , , 1, 1, , 1, 20.01, -0.09, -0.3, 0.09, 0.98, 1, 47.98679352, -81.84859467, 4.57, 2.14, , , , 
1225.753, 1, 0, 0, , , 1, 1, , 1, 20.01, -0.09, -0.29, 0.01, 0.98, 1, 47.98679352, -81.84859467, 3.81, 2.56, , , , 
1225.976, 1, 0, 0, , , 1, 1, , 1, 20.01, -0.09, -0.29, 0, 0.98, 1, 47.98679352, -81.84859467, 5.39, 1.77, , , , 
1226.264, 1, 0, 0, , , 1, 1, , 1, 20.02, -0.09, -0.31, -0.02, 0.98, 1, 47.98679352, -81.84859467, 4.26, 2.22, , , , 
1226.408, 1, 0, 0, , , 1, 1, , 1, 20.02, -0.09, -0.31, -0.03, 0.98, 1, 47.98679352, -81.84859467, 4.63, 2.45, , , , 
1226.553, 1, 0, 0, , , 1, 1, , 1, 20.03, -0.09, -0.31, -0.03, 0.98, 1, 47.98679352, -81.84859467, 4.5, 2.42, , , , 
1226.664, 1, 0, 0, , , 1, 1, , 1, 20.03, -0.09, -0.3, 0, 0.98, 1, 47.98679352, -81.84859467, 4.74, 1.42, , , , 
1226.952, 1, 0, 0, , , 1, 1, , 1, 20.03, -0.05, -0.17, 0.13, 0.98, 1, 47.98679352, -81.84859467, 5.4, 2, , , , 
1227.096, 1, 0, 0, , , 1, 1, , 1, 20.03, -0.03, -0.11, 0.11, 0.98, 1, 47.98679352, -81.84859467, 3.44, 2.53, , , , 
1227.209, 1, 0, 0, , , 1, 1, , 1, 20.03, -0.02, -0.08, 0.06, 0.97, 1, 47.98679352, -81.84859467, 5.95, 3.21, , , , 
1227.352, 1, 0, 0, , , 1, 1, , 1, 20.04, -0.02, -0.06, 0.01, 0.98, 1, 47.98679352, -81.84859467, 4.92, 2.65, , , , 
1227.48, 1, 0, 0, , , 1, 1, , 1, 20.04, -0.02, -0.06, 0.02, 0.99, 1, 47.98679352, -81.84859467, 3.79, 2.27, , , , 
1227.624, 1, 0, 0, , , 1, 1, , 1, 20.04, -0.01, -0.03, 0.08, 0.99, 1, 47.98679352, -81.84859467, 2.69, 3.94, , , , 
1227.752, 1, 0, 0, , , 1, 1, , 1, 20.04, -0.01, -0.02, 0.04, 0.98, 1, 47.98679352, -81.84859467, 3.52, 2.81, , , , 
1227.96, 1, 0, 0, , , 1, 1, , 1, 20.04, 0, -0.01, 0.04, 0.98, 1, 47.98679352, -81.84859467, 5.62, 1.4, , , , 
1228.12, 1, 0, 0, , , 1, 1, , 1, 20.04, 0, -0.01, -0.02, 0.98, 1, 47.98679352, -81.84859467, 6.4, 1.22, , , , 
1228.232, 1, 0, 0, , , 1, 1, , 1, 20.05, -0.01, -0.02, -0.05, 0.98, 1, 47.98679352, -81.84859467, 3.24, 3.08, , , , 
1228.808, 1, 0, 0, , , 1, 1, , 1, 20.05, -0.02, -0.06, -0.01, 0.98, 1, 47.98679352, -81.84859467, 3.45, 2.09, , , , 
1228.968, 1, 0, 0, , , 1, 1, , 1, 20.06, -0.02, -0.07, -0.01, 0.98, 1, 47.98679352, -81.84859467, 4.3, 2.34, , , , 
1229.288, 1, 0, 0, , , 1, 1, , 1, 20.06, -0.02, -0.07, 0, 0.98, 1, 47.98679352, -81.84859467, 4.78, 1.71, , , , 
1229.496, 1, 0, 0, , , 1, 1, , 1, 20.06, -0.02, -0.08, -0.02, 0.98, 1, 47.98679352, -81.84859467, 3.04, 2.82, , , , 
1229.623, 1, 0, 0, , , 1, 1, , 1, 20.07, -0.03, -0.08, -0.04, 0.98, 1, 47.98679352, -81.84859467, 5.74, 1.65, , , , 
1229.767, 1, 0, 0, , , 1, 1, , 1, 20.07, -0.03, -0.08, 0.03, 0.98, 1, 47.98679352, -81.84859467, 3.8, 3.13, , , , 
1229.896, 1, 0, 0, , , 1, 1, , 1, 20.07, -0.03, -0.09, 0.02, 0.97, 1, 47.98679352, -81.84859467, 4.58, 2.47, , , , 
1230.023, 1, 0, 0, , , 1, 1, , 1, 20.07, -0.03, -0.1, 0, 0.99, 1, 47.98679352, -81.84859467, 4.7, 2.1, , , , 
1230.248, 1, 0, 0, , , 1, 1, , 1, 20.07, -0.04, -0.12, -0.03, 0.98, 1, 47.98679352, -81.84859467, 4.32, 1.23, , , , 
1230.376, 1, 0, 0, , , 1, 1, , 1, 20.07, -0.05, -0.16, -0.06, 0.98, 1, 47.98679352, -81.84859467, 4.43, 1.85, , , , 
1230.551, 1, 0, 0, , , 1, 1, , 1, 20.08, -0.06, -0.2, -0.06, 0.98, 1, 47.98679352, -81.84859467, 4.95, 2.03, , , , 
1230.664, 1, 0, 0, , , 1, 1, , 1, 20.08, -0.07, -0.24, -0.12, 0.98, 1, 47.98679352, -81.84859467, 4.27, 2.02, , , , 
1230.823, 1, 0, 0, , , 1, 1, , 1, 20.08, -0.08, -0.28, -0.09, 0.98, 1, 47.98679352, -81.84859467, 4.92, 2.19, , , , 
1231.095, 1, 0, 0, , , 1, 1, , 1, 20.08, -0.11, -0.35, -0.1, 0.98, 1, 47.98679352, -81.84859467, 4.1, 1.82, , , , 
1231.223, 1, 0, 0, , , 1, 1, , 1, 20.08, -0.12, -0.39, -0.07, 0.98, 1, 47.98679352, -81.84859467, 4.66, 2.51, , , , 
1231.384, 1, 0, 0, , , 1, 1, , 1, 20.09, -0.13, -0.42, -0.05, 0.98, 1, 47.98679352, -81.84859467, 4.13, 2.2, , , , 
1231.495, 1, 0, 0, , , 1, 1, , 1, 20.09, -0.13, -0.43, 0, 0.98, 1, 47.98679352, -81.84859467, 3.98, 2.11, , , , 
1231.768, 1, 0, 0, , , 1, 1, , 1, 20.09, -0.12, -0.4, 0.03, 0.98, 1, 47.98679352, -81.84859467, 4.34, 1.08, , , , 
1232.023, 1, 0, 0, , , 1, 1, , 1, 20.1, -0.12, -0.4, -0.01, 0.98, 1, 47.98679352, -81.84859467, 5.04, 1.06, , , , 
1232.168, 1, 0, 0, , , 1, 1, , 1, 20.1, -0.13, -0.42, -0.05, 0.98, 1, 47.98679352, -81.84859467, 3.83, 2.36, , , , 
1232.295, 1, 0, 0, , , 1, 1, , 1, 20.1, -0.14, -0.45, -0.05, 0.98, 1, 47.98679352, -81.84859467, 4.87, 2.03, , , , 
1232.52, 1, 0, 0, , , 1, 1, , 1, 20.1, -0.15, -0.49, -0.04, 0.98, 1, 47.98679352, -81.84859467, 4.54, 2.82, , , , 
1232.679, 1, 0, 0, , , 1, 1, , 1, 20.1, -0.16, -0.53, -0.08, 0.98, 1, 47.98679352, -81.84859467, 5.23, 1.68, , , , 
1232.791, 1, 0, 0, , , 1, 1, , 1, 20.1, -0.18, -0.59, -0.17, 0.98, 1, 47.98679352, -81.84859467, 4.47, 2.65, , , , 
1233.095, 1, 0, 0, , , 1, 1, , 1, 20.11, -0.2, -0.65, -0.06, 0.98, 1, 47.98679352, -81.84859467, 5.75, 1.91, , , , 
1233.32, 1, 0, 0, , , 1, 1, , 1, 20.11, -0.24, -0.78, -0.17, 0.98, 1, 47.98679352, -81.84859467, 5.25, 1.79, , , , 
1233.511, 1, 0, 0, , , 1, 1, , 1, 20.11, -0.27, -0.88, -0.14, 0.99, 1, 47.98679352, -81.84859467, 4.45, 0.91, , , , 
1233.64, 1, 0, 0, , , 1, 1, , 1, 20.12, -0.28, -0.91, -0.07, 0.98, 1, 47.98679352, -81.84859467, 3.73, 1.54, , , , 
1233.783, 1, 0, 0, , , 1, 1, , 1, 20.12, -0.29, -0.95, -0.07, 0.98, 1, 47.98679352, -81.84859467, 4.1, 1.88, , , , 
1233.911, 1, 0, 0, , , 1, 1, , 1, 20.12, -0.3, -0.97, -0.05, 0.98, 1, 47.98679352, -81.84859467, 3.54, 1.88, , , , 
1234.055, 1, 0, 0, , , 1, 1, , 1, 20.12, -0.3, -0.98, 0, 0.98, 1, 47.98679352, -81.84859467, 4.38, 1.99, , , , 
1235.111, 1, 0, 0, , , 1, 1, , 1, 20.14, -0.33, -1.09, -0.03, 0.98, 1, 47.98679352, -81.84859467, 4.41, 1.94, , , , 
1235.383, 1, 0, 0, , , 1, 1, , 1, 20.14, -0.34, -1.11, -0.03, 0.98, 1, 47.98679352, -81.84859467, 4.16, 2.2, , , , 
1235.655, 1, 0, 0, , , 1, 1, , 1, 20.15, -0.35, -1.14, -0.03, 0.98, 1, 47.98679352, -81.84859467, 4.55, 1.79, , , , 
1235.782, 1, 0, 0, , , 1, 1, , 1, 20.15, -0.35, -1.14, 0.02, 0.98, 1, 47.98679352, -81.84859467, 4.64, 1.85, , , , 
1235.927, 1, 0, 0, , , 1, 1, , 1, 20.15, -0.34, -1.12, 0.05, 0.98, 1, 47.98679352, -81.84859467, 4.2, 2.36, , , , 
1236.038, 1, 0, 0, , , 1, 1, , 1, 20.15, -0.34, -1.11, 0.03, 0.98, 1, 47.98679352, -81.84859467, 4.58, 2.08, , , , 
1236.183, 1, 0, 0, , , 1, 1, , 1, 20.15, -0.33, -1.09, 0.05, 0.98, 1, 47.98679352, -81.84859467, 4.44, 2.08, , , , 
1236.311, 1, 0, 0, , , 1, 1, , 1, 20.15, -0.33, -1.07, 0.03, 0.98, 1, 47.98679352, -81.84859467, 4.63, 2.14, , , , 
1236.454, 1, 0, 0, , , 1, 1, , 1, 20.15, -0.32, -1.06, 0.05, 0.98, 1, 47.98679352, -81.84859467, 4.57, 2.14, , , , 
1236.79, 1, 0, 0, , , 1, 1, , 1, 20.16, -0.32, -1.04, 0.01, 0.98, 1, 47.98679352, -81.84859467, 4.54, 2.25, , , , 
1236.966, 1, 0, 0, , , 1, 1, , 1, 20.16, -0.31, -1.03, 0.04, 0.98, 1, 47.98679352, -81.84859467, 4.66, 2.11, , , , 
1237.079, 1, 0, 0, , , 1, 1, , 1, 20.16, -0.31, -1.03, -0.04, 0.98, 1, 47.98679352, -81.84859467, 4.65, 1.9, , , , 
1237.238, 1, 0, 0, , , 1, 1, , 1, 20.16, -0.31, -1.03, -0.03, 0.98, 1, 47.98679352, -81.84859467, 4.32, 2.48, , , , 
1237.91, 1, 0, 0, , , 1, 1, , 1, 20.17, -0.35, -1.15, -0.06, 0.98, 1, 47.98679352, -81.84859467, 4.12, 2.25, , , , 
1238.071, 1, 0, 0, , , 1, 1, , 1, 20.17, -0.37, -1.2, -0.1, 0.98, 1, 47.98679352, -81.84859467, 4.86, 1.94, , , , 
1238.182, 1, 0, 0, , , 1, 1, , 1, 20.17, -0.38, -1.25, -0.1, 0.98, 1, 47.98679352, -81.84859467, 4.69, 2.02, , , , 
1238.326, 1, 0, 0, , , 1, 1, , 1, 20.18, -0.4, -1.32, -0.16, 0.98, 1, 47.98679352, -81.84859467, 4.44, 2.57, , , , 
1238.566, 1, 0, 0, , , 1, 1, , 1, 20.18, -0.42, -1.38, -0.09, 0.98, 1, 47.98679352, -81.84859467, 4.66, 2.45, , , , 
1238.838, 1, 0, 0, , , 1, 1, , 1, 20.18, -0.45, -1.46, -0.09, 0.98, 1, 47.98679352, -81.84859467, 4.98, 2.11, , , , 
1238.951, 1, 0, 0, , , 1, 1, , 1, 20.18, -0.45, -1.49, -0.04, 0.98, 1, 47.98679352, -81.84859467, 4.49, 2.14, , , , 
1239.126, 1, 0, 0, , , 1, 1, , 1, 20.19, -0.46, -1.52, -0.08, 0.98, 1, 47.98679352, -81.84859467, 4.41, 2.42, , , , 
1239.238, 1, 0, 0, , , 1, 1, , 1, 20.19, -0.46, -1.51, -0.01, 0.98, 1, 47.98679352, -81.84859467, 5.01, 2.25, , , , 
1239.398, 1, 0, 0, , , 1, 1, , 1, 20.19, -0.45, -1.48, 0.06, 0.98, 1, 47.98679352, -81.84859467, 4.76, 2.03, , , , 
1239.526, 1, 0, 0, , , 1, 1, , 1, 20.19, -0.43, -1.42, 0.13, 0.98, 1, 47.98679352, -81.84859467, 4.52, 1.99, , , , 
1239.67, 1, 0, 0, , , 1, 1, , 1, 20.19, -0.42, -1.37, 0.09, 0.98, 1, 47.98679352, -81.84859467, 4.89, 2.28, , , , 
1239.782, 1, 0, 0, , , 1, 1, , 1, 20.19, -0.4, -1.31, 0.17, 0.98, 1, 47.98679352, -81.84859467, 4.29, 2.45, , , , 
1239.926, 1, 0, 0, , , 1, 1, , 1, 20.19, -0.38, -1.24, 0.16, 0.98, 1, 47.98679352, -81.84859467, 4.4, 1.59, , , , 
1240.054, 1, 0, 0, , , 1, 1, , 1, 20.2, -0.36, -1.17, 0.19, 0.98, 1, 47.98679352, -81.84859467, 4.6, 2.14, , , , 
1240.198, 1, 0, 0, , , 1, 1, , 1, 20.2, -0.34, -1.1, 0.16, 0.98, 1, 47.98679352, -81.84859467, 4.24, 2.14, , , , 
1240.534, 1, 0, 0, , , 1, 1, , 1, 20.2, -0.3, -0.97, 0.13, 0.98, 1, 47.98679352, -81.84859467, 4.24, 2.56, , , , 
1240.694, 1, 0, 0, , , 1, 1, , 1, 20.2, -0.28, -0.92, 0.13, 0.98, 1, 47.98679352, -81.84859467, 4.6, 1.73, , , , 
1240.806, 1, 0, 0, , , 1, 1, , 1, 20.21, -0.27, -0.87, 0.12, 0.98, 1, 47.98679352, -81.84859467, 4.72, 2.14, , , , 
1240.982, 1, 0, 0, , , 1, 1, , 1, 20.21, -0.25, -0.82, 0.11, 0.98, 1, 47.98679352, -81.84859467, 4.58, 2.62, , , , 
1241.094, 1, 0, 0, , , 1, 1, , 1, 20.21, -0.24, -0.77, 0.13, 0.98, 1, 47.98679352, -81.84859467, 4.97, 1.91, , , , 
1241.334, 1, 0, 0, , , 1, 1, , 1, 20.21, -0.22, -0.73, 0.08, 0.98, 1, 47.98679352, -81.84859467, 4.75, 2.45, , , , 
1241.653, 1, 0, 0, , , 1, 1, , 1, 20.21, -0.18, -0.61, 0.11, 0.98, 1, 47.98679352, -81.84859467, 5.46, 3.4, , , , 
1241.813, 1, 0, 0, , , 1, 1, , 1, 20.22, -0.17, -0.57, 0.04, 0.98, 1, 47.98679352, -81.84859467, 4.69, 2.73, , , , 
1241.926, 1, 0, 0, , , 1, 1, , 1, 20.22, -0.16, -0.54, 0.06, 0.98, 1, 47.98679352, -81.84859467, 5.08, 1.79, , , , 
1242.069, 1, 0, 0, , , 1, 1, , 1, 20.22, -0.15, -0.51, 0.04, 0.98, 1, 47.98679352, -81.84859467, 4.34, 2.7, , , , 
1242.198, 1, 0, 0, , , 1, 1, , 1, 20.22, -0.14, -0.47, 0.04, 0.98, 1, 47.98679352, -81.84859467, 4.49, 2.45, , , , 
1243.398, 1, 0, 0, , , 1, 1, , 1, 20.24, -0.04, -0.11, 0.09, 0.98, 1, 47.98679352, -81.84859467, 5.06, 2.37, , , , 
1243.541, 1, 0, 0, , , 1, 1, , 1, 20.24, -0.02, -0.06, 0.16, 0.98, 1, 47.98679352, -81.84859467, 4.24, 2.42, , , , 
1243.669, 1, 0, 0, , , 1, 1, , 1, 20.24, 0, 0, 0.16, 0.98, 1, 47.98679352, -81.84859467, 4.74, 1.43, , , , 
1243.798, 1, 0, 0, , , 1, 1, , 1, 20.24, 0.02, 0.07, 0.17, 0.98, 1, 47.98679352, -81.84859467, 3.49, 1.93, , , , 
1243.941, 1, 0, 0, , , 1, 1, , 1, 20.24, 0.04, 0.14, 0.16, 0.98, 1, 47.98679352, -81.84859467, 3.75, 1.25, , , , 
1244.069, 1, 0, 0, , , 1, 1, , 1, 20.24, 0.06, 0.21, 0.19, 0.98, 1, 47.98679352, -81.84859467, 4.63, 2.65, , , , 
1244.214, 1, 0, 0, , , 1, 1, , 1, 20.25, 0.09, 0.29, 0.2, 0.98, 1, 47.98679352, -81.84859467, 4.65, 1.73, , , , 
1244.341, 1, 0, 0, , , 1, 1, , 1, 20.25, 0.11, 0.37, 0.18, 0.98, 1, 47.98679352, -81.84859467, 4.83, 2.53, , , , 
1244.598, 1, 0, 0, , , 1, 1, , 1, 20.25, 0.17, 0.54, 0.22, 0.98, 1, 47.98679352, -81.84859467, 4.9, 1.94, , , , 
1244.869, 1, 0, 0, , , 1, 1, , 1, 20.24, 0.21, 0.68, 0.14, 0.98, 1, 47.98679352, -81.84859467, 4.17, 2.36, , , , 
1245.093, 1, 0, 0, , , 1, 1, , 1, 20.25, 0.27, 0.89, 0.28, 0.98, 1, 47.98679352, -81.84859467, 4.51, 1.56, , , , 
