time,altitude,pitch,roll,yaw,lat,lon,speed,acceleration,temperature,vibrations,landing_force,batt_check,igniter_check,gps_check
0,0,0,0,0,46.752349,-72.337684,0,0,0,0,0,1,0,0
1,0,0,0,0,46.752349,-72.337684,0,0,0,0,0,1,0,0
2,0,0,0,0,46.752349,-72.337684,0,0,0,0,0,1,0,0
3,0,0,0,0,46.752349,-72.337684,0,0,0,0,0,1,1,0
4,0,0,0,0,46.752349,-72.337684,0,0,0,0,0,1,1,0
5,0,0,0,0,46.752349,-72.337684,0,0,0,0,0,1,1,0
6,0,0,0,0,46.752349,-72.337684,0,0,0,0,0,1,1,1
7,0,0,0,0,46.752349,-72.337684,0,0,0,0,0,1,1,1
8,0,0,0,0,46.752349,-72.337684,0,0,0,0,0,1,1,1
9,0,0,0,0,46.752349,-72.337684,0,0,0,0,0,1,1,1
10.01,0.001,0.0,0.0,0.0,46.752349,-72.337684,0.29,28.988,15.0,38.637,20.3,1,1,1
10.521,18.693,3.232,0.565,0.042,46.752349,-72.33766615,74.344,152.963,14.878,74.165,20.3,1,1,1
11.021,75.679,2.889,4.784,0.187,46.752349,-72.33760713,154.789,167.912,14.508,86.884,20.3,1,1,1
11.521,174.189,3.604,2.392,1.153,46.75234901,-72.33749562,238.525,162.352,13.868,86.451,20.3,1,1,1
12.021,312.751,2.706,-20.718,-16.979,46.75234903,-72.33733293,313.449,136.338,12.967,49.734,20.3,1,1,1
12.521,485.058,2.072,-41.043,-19.304,46.75234905,-72.33712587,373.162,106.381,11.847,7.443,20.3,1,1,1
13.06,695.573,2.078,-63.545,14.7,46.7523491,-72.33686854,384.67,-75.736,10.479,77.567,20.3,1,1,1
13.56,878.877,1.869,-67.059,15.382,46.75234914,-72.33664193,349.529,-63.968,9.287,23.088,20.3,1,1,1
14.11,1062.223,2.043,-66.798,22.292,46.75234921,-72.33641252,318.433,-50.567,8.096,43.185,20.3,1,1,1
14.61,1215.453,2.158,-70.301,29.696,46.75234927,-72.33621817,295.098,-43.161,7.1,91.246,20.3,1,1,1
15.11,1357.856,1.88,-76.304,37.171,46.75234932,-72.33603497,274.977,-37.574,6.174,96.634,20.3,1,1,1
15.61,1490.838,2.08,-71.043,36.896,46.75234939,-72.3358612,257.308,-33.291,5.31,97.998,20.3,1,1,1
16.11,1615.481,1.883,-69.128,32.071,46.75234945,-72.33569558,241.546,-29.881,4.499,16.297,20.3,1,1,1
16.61,1732.64,1.886,-73.891,31.64,46.75234952,-72.3355371,227.323,-27.121,3.738,55.806,20.3,1,1,1
17.11,1843.011,1.925,-75.887,32.4,46.75234958,-72.33538489,214.351,-24.848,3.02,74.272,20.3,1,1,1
17.61,1947.167,1.615,-73.606,32.907,46.75234966,-72.33523824,202.429,-22.882,2.343,98.955,20.3,1,1,1
18.11,2045.587,1.289,-71.125,35.965,46.75234974,-72.33509655,191.385,-21.26,1.704,43.477,20.3,1,1,1
18.61,2138.676,1.385,-69.687,50.302,46.75234982,-72.33495933,181.087,-19.904,1.099,20.285,20.3,1,1,1
19.11,2226.78,0.862,-70.563,47.577,46.75234989,-72.33482613,171.425,-18.716,0.526,55.96,20.3,1,1,1
19.61,2310.195,0.714,-70.24,47.163,46.75234998,-72.33469658,162.319,-17.669,-0.016,21.018,20.3,1,1,1
20.11,2389.181,-0.188,-70.699,45.473,46.75235006,-72.3345704,153.696,-16.821,-0.53,25.025,20.3,1,1,1
20.61,2463.966,-1.07,-73.135,38.148,46.75235015,-72.33444722,145.503,-16.037,-1.016,0.236,20.3,1,1,1
21.11,2534.748,-0.894,-73.683,31.163,46.75235024,-72.33432681,137.685,-15.308,-1.476,71.847,20.3,1,1,1
21.61,2601.704,0.076,-73.202,31.938,46.75235033,-72.33420895,130.194,-14.684,-1.911,2.995,20.3,1,1,1
22.11,2664.989,1.983,-73.674,32.303,46.75235042,-72.33409342,123.0,-14.092,-2.322,15.319,20.3,1,1,1
22.61,2724.745,0.805,-71.779,32.43,46.75235052,-72.33398008,116.06,-13.617,-2.711,76.559,20.3,1,1,1
23.11,2781.093,1.643,-73.709,35.603,46.75235062,-72.33386873,109.37,-13.195,-3.077,24.767,20.3,1,1,1
23.61,2834.147,2.358,-72.098,34.058,46.75235072,-72.33375919,102.882,-12.759,-3.422,67.704,20.3,1,1,1
24.11,2884.008,5.155,-69.941,32.308,46.75235083,-72.33365139,96.59,-12.408,-3.746,62.452,20.3,1,1,1
24.61,2930.764,4.115,-68.668,31.541,46.75235092,-72.33354513,90.463,-12.069,-4.05,14.764,20.3,1,1,1
25.11,2974.499,8.039,-67.43,34.872,46.75235103,-72.33344039,84.501,-11.803,-4.334,63.57,20.3,1,1,1
25.61,3015.284,3.965,-65.828,36.097,46.75235114,-72.33333697,78.662,-11.534,-4.599,64.195,20.3,1,1,1
26.11,3053.185,8.296,-64.327,35.287,46.75235126,-72.33323475,72.964,-11.259,-4.846,4.146,20.3,1,1,1
26.61,3088.267,10.961,-62.297,35.472,46.75235137,-72.33313379,67.38,-11.096,-5.074,92.987,20.3,1,1,1
27.11,3120.578,5.389,-61.863,38.342,46.75235149,-72.33303383,61.879,-10.888,-5.284,34.871,20.3,1,1,1
27.61,3150.168,14.973,-60.436,37.273,46.75235161,-72.33293485,56.499,-10.678,-5.476,55.785,20.3,1,1,1
28.11,3177.086,6.941,-59.953,39.403,46.75235172,-72.33283691,51.181,-10.593,-5.651,20.675,20.3,1,1,1
28.61,3201.36,8.772,-58.27,43.533,46.75235185,-72.33273966,45.931,-10.395,-5.809,74.896,20.3,1,1,1
29.11,3223.034,23.858,-57.184,42.033,46.75235198,-72.33264324,40.777,-10.254,-5.95,85.268,20.3,1,1,1
29.61,3242.144,29.971,-54.91,117.299,46.7523521,-72.33254766,35.665,-10.193,-6.074,52.02,20.3,1,1,1
30.11,3258.706,45.213,-53.217,180.279,46.75235224,-72.3324527,30.594,-10.084,-6.182,72.572,20.3,1,1,1
30.61,3272.749,68.539,-51.54,180.312,46.75235237,-72.33235833,25.584,-9.959,-6.273,31.93,20.3,1,1,1
31.11,3284.3,99.127,-50.478,178.732,46.75235251,-72.3322646,20.63,-9.876,-6.348,16.985,20.3,1,1,1
31.61,3293.385,137.721,-49.318,177.212,46.75235264,-72.3321715,15.716,-9.788,-6.407,79.551,20.3,1,1,1
32.11,3300.023,184.569,-47.33,176.582,46.75235279,-72.332079,10.841,-9.708,-6.45,20.52,20.3,1,1,1
32.61,3304.233,239.986,-46.698,177.16,46.75235293,-72.33198704,6.005,-9.641,-6.478,74.291,20.3,1,1,1
33.11,3306.034,303.617,-45.996,178.555,46.75235307,-72.33189557,1.205,-9.568,-6.489,94.826,20.3,1,1,1
33.650999999999996,3305.284,316.07,-43.917,172.857,46.75235323,-72.33179967,-3.983,-9.605,-6.49,93.992,20.3,1,1,1
34.43,3299.555,315.987,-45.043,166.568,46.75235343,-72.33168215,-10.622,-8.259,-6.472,84.196,20.3,1,1,1
35.422,3285.449,315.789,-38.242,157.601,46.75235365,-72.33156255,-17.562,-6.524,-6.407,42.496,20.3,1,1,1
36.402,3265.7,315.469,-37.049,140.441,46.75235382,-72.33147329,-22.493,-4.535,-6.295,98.163,20.3,1,1,1
36.902,3253.996,315.244,-36.531,133.706,46.75235389,-72.33143763,-24.325,-3.665,-6.227,53.804,20.3,1,1,1
37.402,3241.479,315.474,-37.506,128.386,46.75235396,-72.33140778,-25.743,-2.834,-6.151,99.005,20.3,1,1,1
37.902,3228.34,315.42,-35.713,127.195,46.75235402,-72.33138316,-26.814,-2.144,-6.07,67.794,20.3,1,1,1
38.402,3214.733,315.635,-35.874,122.068,46.75235406,-72.33136315,-27.612,-1.595,-5.984,8.71,20.3,1,1,1
38.902,3200.783,315.78,-34.006,121.453,46.75235411,-72.33134715,-28.188,-1.152,-5.896,80.952,20.3,1,1,1
39.402,3186.586,315.602,-32.849,117.171,46.75235414,-72.33133465,-28.602,-0.829,-5.805,13.457,20.3,1,1,1
39.902,3172.211,315.758,-31.568,113.699,46.75235417,-72.33132518,-28.894,-0.584,-5.713,31.096,20.3,1,1,1
40.402,3157.713,315.598,-29.297,109.669,46.7523542,-72.33131828,-29.098,-0.408,-5.619,83.56,20.3,1,1,1
40.902,3143.128,315.795,-28.33,104.735,46.75235423,-72.33131347,-29.241,-0.286,-5.525,94.072,20.3,1,1,1
41.402,3128.485,315.937,-26.682,103.809,46.75235424,-72.33131039,-29.334,-0.185,-5.43,57.81,20.3,1,1,1
41.902,3113.803,315.705,-25.85,99.469,46.75235425,-72.33130885,-29.392,-0.116,-5.335,97.761,20.3,1,1,1
42.402,3099.099,315.567,-24.136,97.49,46.75235427,-72.33130869,-29.426,-0.069,-5.24,54.335,20.3,1,1,1
42.902,3084.381,315.549,-22.628,97.461,46.75235428,-72.33130969,-29.444,-0.036,-5.144,19.473,20.3,1,1,1
43.402,3069.657,315.61,-21.03,97.364,46.75235429,-72.33131172,-29.45,-0.011,-5.048,63.555,20.3,1,1,1
43.902,3054.932,315.458,-22.014,96.338,46.7523543,-72.33131455,-29.45,0.0004254,-4.953,36.735,20.3,1,1,1
44.402,3040.209,315.4,-22.067,91.946,46.75235431,-72.33131803,-29.442,0.016,-4.857,79.885,20.3,1,1,1
44.902,3025.491,315.173,-22.124,89.574,46.75235431,-72.3313221,-29.43,0.023,-4.761,92.037,20.3,1,1,1
45.402,3010.78,315.341,-23.347,87.774,46.75235431,-72.33132663,-29.416,0.028,-4.666,1.5,20.3,1,1,1
45.902,2996.076,315.482,-22.676,86.509,46.75235431,-72.33133146,-29.4,0.033,-4.57,27.432,20.3,1,1,1
46.402,2981.38,315.367,-23.449,82.843,46.75235431,-72.33133657,-29.382,0.036,-4.474,18.094,20.3,1,1,1
46.902,2966.694,315.181,-21.812,78.901,46.75235431,-72.33134188,-29.362,0.039,-4.379,18.34,20.3,1,1,1
47.402,2952.018,314.996,-22.946,77.669,46.75235432,-72.33134732,-29.342,0.041,-4.284,49.334,20.3,1,1,1
47.902,2937.353,315.126,-22.378,76.527,46.75235432,-72.33135291,-29.32,0.043,-4.188,51.7,20.3,1,1,1
48.402,2922.698,315.217,-23.152,74.972,46.75235432,-72.33135855,-29.299,0.043,-4.093,12.311,20.3,1,1,1
48.902,2908.054,315.281,-24.314,71.601,46.75235432,-72.33136413,-29.277,0.044,-3.998,10.542,20.3,1,1,1
49.402,2893.421,315.304,-25.537,69.778,46.75235432,-72.33136968,-29.255,0.044,-3.902,99.051,20.3,1,1,1
49.902,2878.799,315.069,-25.303,68.455,46.75235432,-72.33137536,-29.232,0.045,-3.807,82.292,20.3,1,1,1
50.402,2864.189,315.232,-26.539,65.959,46.75235432,-72.33138134,-29.209,0.046,-3.712,69.889,20.3,1,1,1
50.902,2849.59,315.419,-27.994,62.901,46.75235432,-72.33138761,-29.187,0.044,-3.617,58.92,20.3,1,1,1
51.402,2835.001,315.306,-28.463,60.279,46.75235432,-72.33139404,-29.165,0.044,-3.522,31.761,20.3,1,1,1
51.902,2820.424,315.191,-25.534,58.969,46.75235432,-72.33140051,-29.143,0.044,-3.428,1.897,20.3,1,1,1
52.402,2805.858,314.98,-24.761,56.366,46.75235431,-72.33140698,-29.122,0.044,-3.333,20.196,20.3,1,1,1
52.902,2791.303,315.112,-26.453,54.072,46.75235431,-72.3314135,-29.1,0.044,-3.238,97.756,20.3,1,1,1
53.402,2776.758,315.265,-28.182,53.623,46.75235431,-72.3314201,-29.078,0.044,-3.143,1.768,20.3,1,1,1
53.902,2762.225,315.241,-29.634,52.738,46.75235431,-72.33142666,-29.056,0.044,-3.049,72.818,20.3,1,1,1
54.402,2747.702,315.166,-31.505,51.084,46.75235431,-72.33143312,-29.034,0.043,-2.954,63.273,20.3,1,1,1
54.902,2733.19,315.001,-33.078,50.765,46.75235431,-72.33143955,-29.013,0.043,-2.86,30.793,20.3,1,1,1
55.402,2718.69,314.866,-31.326,50.521,46.75235431,-72.33144603,-28.991,0.043,-2.766,46.034,20.3,1,1,1
55.902,2704.199,314.644,-29.733,49.956,46.75235431,-72.33145254,-28.97,0.043,-2.671,11.315,20.3,1,1,1
56.402,2689.72,314.617,-28.85,48.433,46.75235431,-72.33145903,-28.948,0.043,-2.577,47.534,20.3,1,1,1
56.902,2675.251,314.718,-26.976,46.903,46.75235431,-72.33146558,-28.927,0.043,-2.483,51.533,20.3,1,1,1
57.402,2660.793,314.646,-25.633,45.158,46.75235431,-72.33147213,-28.905,0.043,-2.389,44.365,20.3,1,1,1
57.902,2646.346,314.741,-27.241,43.533,46.75235431,-72.33147861,-28.884,0.042,-2.295,23.376,20.3,1,1,1
58.402,2631.909,314.903,-28.282,42.162,46.75235431,-72.33148501,-28.863,0.042,-2.201,27.056,20.3,1,1,1
58.902,2617.483,315.027,-30.117,41.862,46.75235431,-72.33149143,-28.842,0.042,-2.107,19.941,20.3,1,1,1
59.402,2603.067,315.035,-28.698,41.786,46.75235431,-72.33149797,-28.821,0.042,-2.014,16.911,20.3,1,1,1
59.902,2588.662,315.027,-30.131,41.113,46.75235431,-72.33150446,-28.8,0.042,-1.92,84.643,20.3,1,1,1
60.402,2574.267,315.223,-31.464,40.954,46.7523543,-72.3315108,-28.779,0.042,-1.826,28.904,20.3,1,1,1
60.902,2559.883,315.048,-32.527,39.917,46.7523543,-72.33151694,-28.758,0.042,-1.733,44.46,20.3,1,1,1
61.402,2545.509,315.024,-32.252,37.998,46.7523543,-72.33152298,-28.738,0.041,-1.639,71.331,20.3,1,1,1
61.902,2531.145,314.976,-32.405,37.525,46.7523543,-72.33152905,-28.717,0.041,-1.546,77.056,20.3,1,1,1
62.402,2516.792,315.125,-33.553,35.756,46.7523543,-72.33153513,-28.697,0.041,-1.452,1.402,20.3,1,1,1
62.902,2502.449,314.886,-32.045,35.106,46.7523543,-72.33154121,-28.676,0.041,-1.359,91.277,20.3,1,1,1
63.402,2488.116,315.134,-32.495,34.996,46.7523543,-72.33154722,-28.656,0.041,-1.266,27.603,20.3,1,1,1
63.902,2473.793,314.949,-34.212,33.526,46.75235429,-72.33155309,-28.635,0.041,-1.173,45.862,20.3,1,1,1
64.402,2459.481,315.032,-34.025,32.595,46.75235429,-72.33155898,-28.614,0.042,-1.08,82.449,20.3,1,1,1
64.902,2445.179,314.881,-31.771,31.565,46.75235429,-72.33156497,-28.593,0.042,-0.987,10.319,20.3,1,1,1
65.402,2430.888,314.951,-29.765,30.886,46.75235429,-72.33157101,-28.572,0.042,-0.894,25.299,20.3,1,1,1
65.902,2416.607,314.722,-30.462,29.431,46.75235429,-72.33157718,-28.551,0.043,-0.801,52.105,20.3,1,1,1
66.402,2402.337,314.692,-28.045,28.155,46.75235429,-72.33158352,-28.53,0.042,-0.708,70.293,20.3,1,1,1
66.902,2388.077,314.866,-26.654,27.334,46.75235429,-72.33158994,-28.509,0.042,-0.615,94.787,20.3,1,1,1
67.402,2373.828,315.049,-26.313,26.864,46.75235428,-72.33159635,-28.488,0.042,-0.523,77.685,20.3,1,1,1
67.902,2359.59,314.891,-25.391,25.717,46.75235428,-72.33160281,-28.467,0.042,-0.43,51.592,20.3,1,1,1
68.402,2345.362,315.053,-25.136,25.54,46.75235428,-72.33160934,-28.446,0.042,-0.337,46.331,20.3,1,1,1
68.902,2331.144,315.099,-23.134,24.967,46.75235428,-72.33161589,-28.425,0.042,-0.245,46.836,20.3,1,1,1
69.402,2316.937,315.277,-24.166,24.778,46.75235428,-72.33162244,-28.404,0.042,-0.152,70.054,20.3,1,1,1
69.902,2302.74,315.183,-21.819,23.657,46.75235428,-72.33162904,-28.383,0.041,-0.06,13.814,20.3,1,1,1
70.402,2288.553,315.236,-22.972,23.601,46.75235428,-72.33163567,-28.363,0.041,0.032,52.546,20.3,1,1,1
70.902,2274.377,315.369,-21.864,22.694,46.75235427,-72.33164226,-28.342,0.041,0.124,35.8,20.3,1,1,1
71.402,2260.211,315.485,-19.852,22.279,46.75235427,-72.33164875,-28.322,0.041,0.217,17.02,20.3,1,1,1
71.902,2246.055,315.389,-20.78,21.849,46.75235427,-72.33165509,-28.301,0.041,0.309,35.143,20.3,1,1,1
72.402,2231.91,315.222,-20.677,21.821,46.75235427,-72.33166132,-28.281,0.041,0.401,69.249,20.3,1,1,1
72.902,2217.775,315.367,-18.706,21.074,46.75235427,-72.33166748,-28.261,0.04,0.493,28.42,20.3,1,1,1
73.402,2203.649,315.385,-18.327,20.899,46.75235427,-72.33167369,-28.24,0.041,0.584,39.304,20.3,1,1,1
73.902,2189.534,315.348,-19.871,20.095,46.75235427,-72.33167992,-28.22,0.04,0.676,93.332,20.3,1,1,1
74.402,2175.429,315.189,-20.122,19.552,46.75235426,-72.33168596,-28.2,0.041,0.768,24.406,20.3,1,1,1
74.902,2161.334,315.102,-18.25,19.452,46.75235426,-72.33169176,-28.18,0.04,0.86,14.234,20.3,1,1,1
75.402,2147.249,315.136,-18.862,18.927,46.75235426,-72.33169754,-28.16,0.04,0.951,92.357,20.3,1,1,1
75.902,2133.174,315.106,-19.16,18.862,46.75235426,-72.33170333,-28.14,0.039,1.043,18.646,20.3,1,1,1
76.402,2119.109,315.046,-19.128,18.806,46.75235426,-72.33170914,-28.121,0.039,1.134,64.703,20.3,1,1,1
76.902,2105.053,315.268,-19.713,18.753,46.75235426,-72.33171497,-28.101,0.039,1.226,51.038,20.3,1,1,1
77.402,2091.008,315.459,-19.195,18.548,46.75235426,-72.33172079,-28.081,0.039,1.317,96.357,20.3,1,1,1
77.902,2076.972,315.674,-20.549,18.528,46.75235425,-72.33172657,-28.062,0.039,1.408,4.275,20.3,1,1,1
78.402,2062.946,315.706,-19.611,17.893,46.75235425,-72.33173225,-28.042,0.039,1.5,96.987,20.3,1,1,1
78.902,2048.929,315.847,-17.701,17.716,46.75235425,-72.33173795,-28.023,0.039,1.591,1.981,20.3,1,1,1
79.402,2034.923,315.612,-18.466,17.579,46.75235425,-72.33174376,-28.003,0.039,1.682,34.986,20.3,1,1,1
79.902,2020.926,315.834,-16.307,17.418,46.75235425,-72.33174967,-27.984,0.038,1.773,22.947,20.3,1,1,1
80.402,2006.939,315.996,-17.261,16.639,46.75235425,-72.33175574,-27.965,0.039,1.864,28.108,20.3,1,1,1
80.902,1992.961,316.159,-14.613,16.025,46.75235425,-72.33176208,-27.945,0.039,1.955,80.931,20.3,1,1,1
81.402,1978.993,316.02,-13.022,15.456,46.75235425,-72.33176851,-27.926,0.038,2.046,97.842,20.3,1,1,1
81.902,1965.035,315.886,-10.315,15.095,46.75235424,-72.33177488,-27.907,0.039,2.137,38.196,20.3,1,1,1
82.402,1951.087,316.046,-10.418,14.693,46.75235424,-72.33178123,-27.887,0.039,2.227,2.72,20.3,1,1,1
82.902,1937.148,316.205,-8.032,14.14,46.75235424,-72.33178759,-27.867,0.04,2.318,92.986,20.3,1,1,1
83.402,1923.219,316.208,-8.283,14.006,46.75235424,-72.33179389,-27.847,0.04,2.409,61.453,20.3,1,1,1
83.902,1909.3,316.262,-8.283,13.341,46.75235424,-72.33180012,-27.828,0.04,2.499,52.83,20.3,1,1,1
84.402,1895.392,316.313,-8.615,12.787,46.75235424,-72.33180629,-27.808,0.04,2.59,27.416,20.3,1,1,1
84.902,1881.493,316.447,-8.494,12.169,46.75235424,-72.3318125,-27.788,0.04,2.68,77.806,20.3,1,1,1
85.402,1867.604,316.46,-6.444,11.848,46.75235423,-72.33181871,-27.768,0.039,2.77,10.967,20.3,1,1,1
85.902,1853.724,316.464,-4.567,11.716,46.75235423,-72.33182498,-27.749,0.04,2.861,78.774,20.3,1,1,1
86.402,1839.855,316.657,-4.244,11.531,46.75235423,-72.33183127,-27.729,0.039,2.951,48.849,20.3,1,1,1
86.902,1825.995,316.616,-5.212,11.414,46.75235423,-72.3318375,-27.709,0.039,3.041,23.093,20.3,1,1,1
87.402,1812.146,316.477,-6.133,11.235,46.75235423,-72.33184377,-27.69,0.039,3.131,14.999,20.3,1,1,1
87.902,1798.306,316.391,-6.697,11.218,46.75235423,-72.33184995,-27.67,0.039,3.221,54.743,20.3,1,1,1
88.402,1784.475,316.544,-5.375,11.188,46.75235423,-72.331856,-27.651,0.039,3.311,8.365,20.3,1,1,1
88.902,1770.654,316.523,-3.843,10.78,46.75235423,-72.33186211,-27.632,0.039,3.401,66.402,20.3,1,1,1
89.402,1756.843,316.501,-5.756,10.627,46.75235423,-72.33186828,-27.613,0.038,3.491,91.561,20.3,1,1,1
89.902,1743.042,316.421,-5.323,10.291,46.75235423,-72.33187455,-27.593,0.039,3.581,7.25,20.3,1,1,1
90.402,1729.25,316.32,-2.393,9.812,46.75235423,-72.33188105,-27.574,0.038,3.67,5.509,20.3,1,1,1
90.902,1715.468,316.086,0.311,9.727,46.75235423,-72.33188758,-27.555,0.038,3.76,71.329,20.3,1,1,1
91.402,1701.695,315.837,2.526,9.622,46.75235423,-72.33189403,-27.536,0.038,3.849,43.12,20.3,1,1,1
91.902,1687.932,315.733,3.09,9.2,46.75235423,-72.3319004,-27.517,0.038,3.939,51.636,20.3,1,1,1
92.402,1674.178,315.718,2.614,8.803,46.75235423,-72.33190671,-27.499,0.037,4.028,56.393,20.3,1,1,1
92.902,1660.433,315.683,3.089,8.769,46.75235422,-72.33191304,-27.48,0.037,4.118,97.22,20.3,1,1,1
93.402,1646.698,315.771,4.925,8.603,46.75235422,-72.33191931,-27.461,0.037,4.207,82.836,20.3,1,1,1
93.902,1632.972,315.948,6.004,8.546,46.75235422,-72.33192545,-27.443,0.037,4.296,50.55,20.3,1,1,1
94.402,1619.255,316.139,6.199,8.463,46.75235422,-72.33193153,-27.424,0.037,4.386,47.739,20.3,1,1,1
94.902,1605.548,316.098,5.547,8.31,46.75235422,-72.33193756,-27.406,0.037,4.475,77.871,20.3,1,1,1
95.402,1591.85,316.083,5.359,8.286,46.75235422,-72.33194349,-27.387,0.037,4.564,0.455,20.3,1,1,1
95.902,1578.161,316.313,4.538,8.104,46.75235422,-72.33194927,-27.369,0.037,4.653,7.757,20.3,1,1,1
96.402,1564.481,316.513,6.614,7.771,46.75235421,-72.33195502,-27.35,0.037,4.742,44.26,20.3,1,1,1
96.902,1550.81,316.291,9.54,7.5,46.75235421,-72.33196086,-27.332,0.037,4.831,26.46,20.3,1,1,1
97.402,1537.149,316.166,10.647,7.165,46.75235421,-72.33196681,-27.314,0.036,4.92,93.05,20.3,1,1,1
97.902,1523.497,316.062,12.403,7.015,46.75235421,-72.33197282,-27.296,0.036,5.009,14.513,20.3,1,1,1
98.402,1509.853,316.167,13.307,6.743,46.75235421,-72.33197887,-27.278,0.036,5.097,36.373,20.3,1,1,1
98.902,1496.219,316.151,14.283,6.598,46.75235421,-72.33198495,-27.26,0.036,5.186,89.708,20.3,1,1,1
99.402,1482.594,315.938,14.675,6.455,46.75235421,-72.33199119,-27.241,0.037,5.275,87.638,20.3,1,1,1
99.902,1468.978,316.144,13.871,6.43,46.75235421,-72.3319976,-27.223,0.037,5.363,5.394,20.3,1,1,1
100.402,1455.371,315.993,16.562,6.399,46.7523542,-72.33200402,-27.204,0.037,5.452,63.105,20.3,1,1,1
100.902,1441.773,316.043,16.502,6.226,46.7523542,-72.33201035,-27.186,0.037,5.54,26.439,20.3,1,1,1
101.402,1428.185,316.08,15.835,5.919,46.7523542,-72.33201653,-27.167,0.037,5.628,19.66,20.3,1,1,1
101.902,1414.606,316.139,16.486,5.881,46.7523542,-72.33202258,-27.148,0.037,5.717,1.248,20.3,1,1,1
102.402,1401.037,316.383,17.718,5.791,46.7523542,-72.33202873,-27.13,0.038,5.805,5.371,20.3,1,1,1
102.902,1387.477,316.206,20.221,5.519,46.7523542,-72.33203498,-27.111,0.037,5.893,50.143,20.3,1,1,1
103.402,1373.926,316.363,22.597,5.314,46.7523542,-72.33204118,-27.093,0.037,5.981,71.711,20.3,1,1,1
103.902,1360.384,316.416,24.585,5.13,46.75235419,-72.33204732,-27.074,0.037,6.069,0.365,20.3,1,1,1
104.402,1346.852,316.345,26.48,5.003,46.75235419,-72.33205344,-27.056,0.037,6.158,91.132,20.3,1,1,1
104.902,1333.328,316.23,25.846,4.789,46.75235419,-72.33205955,-27.037,0.037,6.245,55.456,20.3,1,1,1
105.402,1319.814,316.057,25.852,4.609,46.75235419,-72.3320657,-27.019,0.037,6.333,18.62,20.3,1,1,1
105.902,1306.309,315.937,26.287,4.409,46.75235419,-72.33207186,-27.001,0.037,6.421,83.187,20.3,1,1,1
106.402,1292.813,315.855,25.508,4.282,46.75235419,-72.33207796,-26.982,0.037,6.509,11.403,20.3,1,1,1
106.902,1279.327,315.922,25.971,4.112,46.75235419,-72.33208401,-26.964,0.036,6.597,24.689,20.3,1,1,1
107.402,1265.849,315.848,28.292,4.062,46.75235419,-72.33209009,-26.946,0.036,6.684,59.502,20.3,1,1,1
107.902,1252.38,315.836,29.448,3.895,46.75235418,-72.3320961,-26.928,0.037,6.772,37.342,20.3,1,1,1
108.402,1238.921,315.661,28.112,3.748,46.75235418,-72.33210196,-26.91,0.036,6.86,39.558,20.3,1,1,1
108.902,1225.47,315.628,27.73,3.693,46.75235418,-72.33210775,-26.892,0.036,6.947,78.627,20.3,1,1,1
109.402,1212.029,315.543,27.589,3.525,46.75235418,-72.33211354,-26.874,0.036,7.034,40.776,20.3,1,1,1
109.902,1198.596,315.791,27.525,3.52,46.75235418,-72.33211944,-26.856,0.036,7.122,67.928,20.3,1,1,1
110.402,1185.172,315.782,29.291,3.476,46.75235418,-72.33212549,-26.839,0.036,7.209,57.143,20.3,1,1,1
110.902,1171.757,315.949,30.746,3.352,46.75235418,-72.3321317,-26.821,0.035,7.296,74.774,20.3,1,1,1
111.402,1158.351,316.003,28.989,3.29,46.75235418,-72.33213805,-26.803,0.035,7.384,40.072,20.3,1,1,1
111.902,1144.954,315.908,31.423,3.219,46.75235417,-72.33214447,-26.786,0.035,7.471,42.217,20.3,1,1,1
112.402,1131.566,315.693,32.918,3.151,46.75235417,-72.33215088,-26.768,0.035,7.558,24.762,20.3,1,1,1
112.902,1118.186,315.652,35.842,2.998,46.75235417,-72.33215736,-26.751,0.035,7.645,70.002,20.3,1,1,1
113.402,1104.815,315.85,34.079,2.898,46.75235417,-72.3321639,-26.734,0.035,7.732,57.028,20.3,1,1,1
113.902,1091.452,315.734,36.663,2.768,46.75235417,-72.33217054,-26.716,0.035,7.819,14.56,20.3,1,1,1
114.402,1078.099,315.816,36.468,2.767,46.75235417,-72.33217723,-26.699,0.034,7.906,15.573,20.3,1,1,1
114.902,1064.753,316.057,35.273,2.731,46.75235417,-72.33218397,-26.682,0.035,7.992,72.903,20.3,1,1,1
115.402,1051.417,315.851,33.608,2.663,46.75235416,-72.33219076,-26.664,0.034,8.079,61.329,20.3,1,1,1
115.902,1038.089,316.094,36.121,2.548,46.75235416,-72.33219757,-26.647,0.034,8.166,94.229,20.3,1,1,1
116.402,1024.77,316.125,34.535,2.516,46.75235416,-72.33220434,-26.63,0.034,8.252,94.294,20.3,1,1,1
116.902,1011.459,316.027,32.833,2.404,46.75235416,-72.33221096,-26.613,0.034,8.339,55.5,20.3,1,1,1
117.402,998.156,315.823,34.818,2.397,46.75235416,-72.33221746,-26.596,0.034,8.426,14.314,20.3,1,1,1
117.902,984.863,315.723,36.405,2.281,46.75235416,-72.3322239,-26.579,0.034,8.512,30.516,20.3,1,1,1
118.402,971.577,315.905,39.29,2.213,46.75235416,-72.33223032,-26.562,0.034,8.598,32.943,20.3,1,1,1
118.902,958.301,315.905,37.969,2.154,46.75235415,-72.33223676,-26.545,0.035,8.685,44.443,20.3,1,1,1
119.402,945.033,316.015,38.798,2.081,46.75235415,-72.3322432,-26.527,0.035,8.771,96.357,20.3,1,1,1
119.902,931.773,315.896,39.123,2.08,46.75235415,-72.3322497,-26.509,0.035,8.857,24.661,20.3,1,1,1
120.402,918.523,316.038,38.801,2.007,46.75235415,-72.33225632,-26.492,0.035,8.943,55.356,20.3,1,1,1
120.902,905.282,315.834,39.521,1.94,46.75235415,-72.33226304,-26.474,0.035,9.03,85.547,20.3,1,1,1
121.402,892.049,315.946,40.046,1.924,46.75235415,-72.33226981,-26.457,0.035,9.116,97.719,20.3,1,1,1
121.902,878.825,315.868,42.747,1.879,46.75235415,-72.3322765,-26.439,0.035,9.202,54.979,20.3,1,1,1
122.402,865.61,315.917,42.813,1.805,46.75235415,-72.33228303,-26.422,0.035,9.288,42.026,20.3,1,1,1
122.902,852.403,315.694,43.867,1.798,46.75235414,-72.33228934,-26.404,0.035,9.374,64.512,20.3,1,1,1
123.402,839.205,315.869,43.414,1.739,46.75235414,-72.33229545,-26.387,0.034,9.459,59.538,20.3,1,1,1
123.902,826.016,315.802,44.075,1.687,46.75235414,-72.33230156,-26.37,0.034,9.545,26.597,20.3,1,1,1
124.402,812.836,315.599,44.058,1.619,46.75235414,-72.33230776,-26.353,0.034,9.631,40.947,20.3,1,1,1
124.902,799.664,315.504,44.769,1.617,46.75235414,-72.332314,-26.335,0.034,9.717,70.152,20.3,1,1,1
125.402,786.5,315.473,47.085,1.568,46.75235414,-72.33232019,-26.318,0.034,9.802,60.838,20.3,1,1,1
125.902,773.345,315.377,48.715,1.505,46.75235414,-72.33232631,-26.301,0.034,9.888,91.369,20.3,1,1,1
126.402,760.199,315.228,47.682,1.497,46.75235414,-72.33233242,-26.284,0.034,9.973,3.948,20.3,1,1,1
126.902,747.061,315.185,46.233,1.426,46.75235414,-72.33233855,-26.267,0.034,10.059,28.437,20.3,1,1,1
127.402,733.931,315.097,44.465,1.401,46.75235414,-72.33234471,-26.25,0.034,10.144,36.048,20.3,1,1,1
127.902,720.81,315.29,45.68,1.383,46.75235414,-72.3323509,-26.234,0.034,10.229,95.604,20.3,1,1,1
128.902,694.594,315.632,49.722,1.242,46.75235414,-72.33236349,-26.2,0.033,10.4,93.817,20.3,1,1,1
129.402,681.498,315.668,50.641,1.186,46.75235414,-72.33236972,-26.183,0.033,10.485,24.983,20.3,1,1,1
129.902,668.41,315.691,52.48,1.183,46.75235414,-72.33237582,-26.167,0.033,10.57,73.945,20.3,1,1,1
130.402,655.331,315.628,52.093,1.138,46.75235413,-72.3323817,-26.15,0.034,10.655,87.651,20.3,1,1,1
130.902,642.26,315.777,51.739,1.082,46.75235413,-72.33238747,-26.134,0.033,10.74,22.786,20.3,1,1,1
131.402,629.197,315.65,52.393,1.071,46.75235413,-72.33239326,-26.117,0.033,10.825,1.674,20.3,1,1,1
131.902,616.143,315.49,52.492,1.041,46.75235413,-72.33239902,-26.101,0.033,10.91,71.251,20.3,1,1,1
132.402,603.097,315.647,54.718,1.03,46.75235413,-72.33240486,-26.084,0.033,10.995,3.099,20.3,1,1,1
132.902,590.059,315.669,56.411,1.013,46.75235413,-72.33241088,-26.068,0.033,11.08,49.871,20.3,1,1,1
133.402,577.029,315.55,59.187,0.991,46.75235413,-72.33241705,-26.052,0.032,11.165,70.615,20.3,1,1,1
133.902,564.007,315.528,58.065,0.972,46.75235413,-72.33242327,-26.036,0.032,11.249,86.89,20.3,1,1,1
134.402,550.993,315.353,58.708,0.969,46.75235412,-72.33242949,-26.019,0.032,11.334,69.19,20.3,1,1,1
134.902,537.987,315.22,59.235,0.956,46.75235412,-72.3324357,-26.003,0.032,11.419,23.798,20.3,1,1,1
135.402,524.99,315.463,59.829,0.927,46.75235412,-72.33244202,-25.987,0.032,11.503,96.698,20.3,1,1,1
135.902,512.0,315.283,61.338,0.896,46.75235412,-72.33244828,-25.971,0.032,11.588,95.217,20.3,1,1,1
136.402,499.019,315.465,60.85,0.876,46.75235412,-72.33245442,-25.955,0.032,11.672,86.069,20.3,1,1,1
136.902,486.045,315.343,60.242,0.851,46.75235412,-72.3324605,-25.939,0.032,11.756,39.453,20.3,1,1,1
137.402,473.079,315.531,62.719,0.809,46.75235412,-72.33246655,-25.923,0.032,11.841,29.266,20.3,1,1,1
137.902,460.122,315.361,65.395,0.806,46.75235412,-72.33247259,-25.907,0.033,11.925,59.717,20.3,1,1,1
138.402,447.173,315.2,67.842,0.802,46.75235411,-72.33247869,-25.89,0.033,12.009,33.592,20.3,1,1,1
138.902,434.232,315.333,66.468,0.78,46.75235411,-72.33248482,-25.874,0.033,12.093,30.233,20.3,1,1,1
139.402,421.299,315.448,64.74,0.765,46.75235411,-72.33249095,-25.857,0.033,12.177,54.541,20.3,1,1,1
139.902,408.375,315.356,64.915,0.756,46.75235411,-72.33249714,-25.841,0.033,12.262,76.939,20.3,1,1,1
140.402,395.458,315.302,64.889,0.748,46.75235411,-72.33250331,-25.824,0.033,12.346,43.41,20.3,1,1,1
140.902,382.551,315.214,62.896,0.746,46.75235411,-72.33250938,-25.808,0.033,12.43,91.23,20.3,1,1,1
141.402,369.651,314.965,61.123,0.715,46.75235411,-72.33251537,-25.791,0.033,12.513,13.493,20.3,1,1,1
141.902,356.759,314.804,61.1,0.701,46.75235411,-72.33252141,-25.775,0.033,12.597,46.368,20.3,1,1,1
142.402,343.876,315.035,59.165,0.695,46.7523541,-72.33252756,-25.758,0.032,12.681,58.966,20.3,1,1,1
142.916,337.479,315.445,78.137,0.315,46.7523541,-72.33253408,-7.874,6.686,12.805,5.678,20.3,1,1,1
143.469,333.655,315.342,78.909,0.301,46.7523541,-72.33254118,-6.405,1.141,12.824,33.196,20.3,1,1,1
144.224,328.914,315.111,76.818,0.278,46.7523541,-72.33255134,-6.214,0.102,12.842,30.694,20.3,1,1,1
144.724,325.8,315.124,75.195,0.276,46.7523541,-72.33255829,-6.243,-0.057,12.862,5.995,20.3,1,1,1
145.224,322.683,315.258,75.77,0.276,46.7523541,-72.33256491,-6.224,0.038,12.882,75.935,20.3,1,1,1
145.724,319.569,315.241,74.047,0.271,46.7523541,-72.33257121,-6.234,-0.021,12.903,53.857,20.3,1,1,1
146.224,316.454,315.461,72.414,0.26,46.7523541,-72.33257727,-6.226,0.016,12.923,86.424,20.3,1,1,1
146.724,313.34,315.387,70.788,0.25,46.7523541,-72.33258315,-6.23,-0.007,12.943,30.709,20.3,1,1,1
147.224,310.226,315.211,70.415,0.239,46.7523541,-72.33258894,-6.226,0.007,12.963,22.067,20.3,1,1,1
147.724,307.112,314.979,69.379,0.235,46.7523541,-72.33259492,-6.226,0.001,12.984,68.681,20.3,1,1,1
148.224,304.0,314.958,70.558,0.234,46.7523541,-72.33260116,-6.226,-0.0001997,13.004,52.907,20.3,1,1,1
148.724,300.888,314.977,71.443,0.224,46.7523541,-72.33260773,-6.222,0.007,13.024,1.036,20.3,1,1,1
149.224,297.776,314.819,71.267,0.218,46.7523541,-72.33261441,-6.224,-0.003,13.044,57.24,20.3,1,1,1
149.724,294.664,314.914,74.035,0.218,46.7523541,-72.33262067,-6.221,0.005,13.064,21.938,20.3,1,1,1
150.224,291.554,315.017,76.862,0.211,46.7523541,-72.33262694,-6.221,0.0001344,13.085,13.109,20.3,1,1,1
150.724,288.443,314.901,75.38,0.207,46.7523541,-72.33263322,-6.22,0.003,13.105,50.118,20.3,1,1,1
151.224,285.333,314.976,78.289,0.2,46.7523541,-72.33263916,-6.22,-3.584e-05,13.125,96.798,20.3,1,1,1
151.724,282.224,314.995,78.132,0.191,46.7523541,-72.33264514,-6.218,0.004,13.145,96.699,20.3,1,1,1
152.224,279.115,315.202,80.944,0.189,46.7523541,-72.33265151,-6.218,0.001,13.166,43.972,20.3,1,1,1
152.724,276.006,315.207,81.172,0.181,46.7523541,-72.33265807,-6.217,0.0004763,13.186,88.057,20.3,1,1,1
153.224,272.899,315.274,80.632,0.18,46.7523541,-72.33266505,-6.212,0.011,13.206,16.737,20.3,1,1,1
153.724,269.792,315.499,80.552,0.176,46.7523541,-72.33267221,-6.216,-0.009,13.226,49.062,20.3,1,1,1
154.224,266.685,315.603,79.921,0.17,46.7523541,-72.33267925,-6.213,0.006,13.246,4.592,20.3,1,1,1
154.724,263.578,315.691,78.402,0.168,46.7523541,-72.33268625,-6.213,-0.0001071,13.267,46.868,20.3,1,1,1
155.224,260.472,315.898,77.802,0.161,46.7523541,-72.3326932,-6.212,0.002,13.287,15.582,20.3,1,1,1
155.724,257.366,315.957,79.471,0.155,46.7523541,-72.33270031,-6.212,0.001,13.307,77.218,20.3,1,1,1
156.224,254.263,315.91,77.542,0.152,46.75235409,-72.33270672,-6.198,0.026,13.327,58.795,20.3,1,1,1
156.724,251.16,315.871,76.41,0.147,46.75235409,-72.33271222,-6.216,-0.036,13.347,34.449,20.3,1,1,1
157.224,248.055,316.055,76.158,0.142,46.75235409,-72.33271801,-6.201,0.03,13.367,44.405,20.3,1,1,1
157.724,244.952,315.943,74.325,0.141,46.75235409,-72.3327244,-6.211,-0.02,13.388,75.595,20.3,1,1,1
158.224,241.848,316.189,74.671,0.141,46.75235409,-72.33273075,-6.204,0.015,13.408,93.932,20.3,1,1,1
158.724,238.745,315.946,74.729,0.138,46.75235409,-72.33273671,-6.207,-0.007,13.428,11.184,20.3,1,1,1
159.224,235.643,315.893,76.615,0.138,46.75235409,-72.33274259,-6.204,0.006,13.448,92.662,20.3,1,1,1
159.724,232.541,315.967,77.778,0.134,46.75235409,-72.33274889,-6.203,0.003,13.468,86.017,20.3,1,1,1
160.224,229.439,315.897,79.598,0.129,46.75235409,-72.33275535,-6.203,-0.001,13.488,26.158,20.3,1,1,1
160.724,226.339,316.086,81.058,0.129,46.75235409,-72.33276129,-6.199,0.008,13.509,81.972,20.3,1,1,1
161.224,223.238,316.262,81.617,0.125,46.75235409,-72.33276703,-6.203,-0.006,13.529,19.962,20.3,1,1,1
161.724,220.138,316.371,82.763,0.123,46.75235409,-72.33277325,-6.198,0.01,13.549,2.881,20.3,1,1,1
162.224,217.039,316.329,81.578,0.118,46.75235409,-72.33277977,-6.201,-0.007,13.569,17.843,20.3,1,1,1
162.724,213.939,316.288,79.989,0.112,46.75235409,-72.33278605,-6.196,0.01,13.589,13.481,20.3,1,1,1
163.224,210.841,316.265,82.088,0.112,46.75235409,-72.33279233,-6.198,-0.003,13.609,47.115,20.3,1,1,1
163.724,207.743,316.086,84.195,0.106,46.75235409,-72.33279849,-6.194,0.007,13.63,83.053,20.3,1,1,1
164.224,204.646,316.225,82.549,0.102,46.75235409,-72.33280388,-6.194,-2.282e-06,13.65,27.276,20.3,1,1,1
164.724,201.549,316.339,84.728,0.099,46.75235409,-72.33280925,-6.193,0.003,13.67,26.848,20.3,1,1,1
165.224,198.452,316.231,84.712,0.095,46.75235409,-72.3328149,-6.195,-0.005,13.69,36.642,20.3,1,1,1
165.724,195.355,316.114,86.21,0.093,46.75235409,-72.33282035,-6.192,0.005,13.71,24.129,20.3,1,1,1
166.224,192.262,316.067,88.532,0.091,46.75235409,-72.33282652,-6.181,0.024,13.73,83.027,20.3,1,1,1
166.724,189.167,316.167,88.559,0.09,46.75235409,-72.3328334,-6.198,-0.035,13.75,95.916,20.3,1,1,1
167.224,186.071,316.274,91.469,0.088,46.75235409,-72.33284034,-6.186,0.024,13.77,42.122,20.3,1,1,1
167.724,182.977,316.096,93.27,0.086,46.75235409,-72.33284728,-6.192,-0.011,13.791,12.351,20.3,1,1,1
168.224,179.882,316.118,91.368,0.084,46.75235409,-72.33285412,-6.187,0.009,13.811,10.811,20.3,1,1,1
168.724,176.789,316.205,92.121,0.084,46.75235409,-72.33286055,-6.184,0.005,13.831,3.499,20.3,1,1,1
169.224,173.697,315.98,90.466,0.081,46.75235409,-72.33286706,-6.183,0.002,13.851,85.437,20.3,1,1,1
169.724,170.605,315.968,89.416,0.078,46.75235409,-72.33287396,-6.187,-0.008,13.871,39.575,20.3,1,1,1
170.224,167.512,315.823,91.492,0.077,46.75235409,-72.33288087,-6.184,0.008,13.891,10.061,20.3,1,1,1
170.724,164.421,315.678,91.044,0.076,46.75235409,-72.33288751,-6.182,0.003,13.911,94.068,20.3,1,1,1
171.224,161.329,315.46,92.1,0.075,46.75235409,-72.33289379,-6.184,-0.005,13.931,95.009,20.3,1,1,1
171.724,158.239,315.461,92.41,0.072,46.75235409,-72.3328996,-6.177,0.014,13.951,64.875,20.3,1,1,1
172.224,155.149,315.238,93.969,0.071,46.75235409,-72.33290496,-6.184,-0.014,13.971,65.394,20.3,1,1,1
172.724,152.058,315.359,93.916,0.07,46.75235408,-72.3329103,-6.179,0.011,13.992,40.654,20.3,1,1,1
173.224,148.969,315.503,92.224,0.07,46.75235408,-72.3329159,-6.178,9.372e-05,14.012,28.257,20.3,1,1,1
173.724,145.88,315.464,93.013,0.069,46.75235408,-72.33292211,-6.177,0.002,14.032,83.169,20.3,1,1,1
174.224,142.791,315.633,94.857,0.068,46.75235408,-72.33292842,-6.178,-0.0005154,14.052,74.727,20.3,1,1,1
174.724,139.702,315.574,97.324,0.068,46.75235408,-72.33293471,-6.176,0.003,14.072,5.914,20.3,1,1,1
175.224,136.614,315.605,97.876,0.065,46.75235408,-72.33294127,-6.176,0.001,14.092,14.768,20.3,1,1,1
175.724,133.527,315.378,98.295,0.064,46.75235408,-72.33294779,-6.174,0.003,14.112,63.963,20.3,1,1,1
176.224,130.44,315.261,97.578,0.062,46.75235408,-72.33295436,-6.173,0.002,14.132,63.749,20.3,1,1,1
176.724,127.353,315.256,97.416,0.061,46.75235408,-72.3329611,-6.173,-0.0005046,14.152,22.873,20.3,1,1,1
177.224,124.267,315.015,99.303,0.06,46.75235408,-72.33296763,-6.171,0.004,14.172,70.621,20.3,1,1,1
177.724,121.181,315.137,100.039,0.059,46.75235408,-72.33297391,-6.172,-0.0001907,14.192,29.375,20.3,1,1,1
178.224,118.097,315.226,98.941,0.056,46.75235408,-72.33298059,-6.165,0.013,14.212,17.35,20.3,1,1,1
178.724,115.014,315.354,98.397,0.056,46.75235408,-72.33298738,-6.169,-0.008,14.232,37.85,20.3,1,1,1
179.224,111.929,315.324,100.455,0.055,46.75235408,-72.33299387,-6.168,0.002,14.252,9.586,20.3,1,1,1
179.724,108.846,315.47,99.713,0.053,46.75235408,-72.3330008,-6.165,0.007,14.272,92.959,20.3,1,1,1
180.224,105.764,315.596,101.068,0.05,46.75235408,-72.3330076,-6.163,0.003,14.293,85.665,20.3,1,1,1
180.724,102.681,315.381,103.135,0.05,46.75235408,-72.3330138,-6.168,-0.009,14.313,74.311,20.3,1,1,1
181.224,99.598,315.187,104.639,0.048,46.75235408,-72.33301997,-6.164,0.008,14.333,53.42,20.3,1,1,1
181.724,96.516,315.241,107.567,0.048,46.75235408,-72.33302639,-6.164,-0.001,14.353,73.485,20.3,1,1,1
182.224,93.434,315.275,106.942,0.046,46.75235408,-72.33303267,-6.162,0.006,14.373,3.254,20.3,1,1,1
182.724,90.353,315.369,108.743,0.044,46.75235408,-72.33303867,-6.163,-0.003,14.393,48.95,20.3,1,1,1
183.224,87.273,315.293,109.423,0.042,46.75235408,-72.33304487,-6.16,0.007,14.413,66.602,20.3,1,1,1
183.724,84.192,315.103,111.531,0.041,46.75235408,-72.33305122,-6.161,-0.003,14.433,58.072,20.3,1,1,1
184.224,81.112,315.291,109.61,0.04,46.75235408,-72.33305733,-6.159,0.005,14.453,65.531,20.3,1,1,1
184.724,78.033,315.198,109.39,0.038,46.75235408,-72.33306338,-6.159,-0.0008275,14.473,20.341,20.3,1,1,1
185.224,74.954,315.007,110.294,0.038,46.75235408,-72.33306927,-6.157,0.005,14.493,59.204,20.3,1,1,1
185.724,71.876,315.09,108.872,0.036,46.75235408,-72.33307542,-6.153,0.007,14.513,94.144,20.3,1,1,1
186.224,68.799,315.129,107.205,0.036,46.75235408,-72.33308217,-6.158,-0.011,14.533,64.502,20.3,1,1,1
186.724,65.721,315.291,105.531,0.035,46.75235408,-72.33308943,-6.151,0.014,14.553,98.913,20.3,1,1,1
187.224,62.645,315.14,108.393,0.034,46.75235408,-72.33309688,-6.156,-0.01,14.573,4.569,20.3,1,1,1
187.724,59.569,315.216,110.095,0.033,46.75235408,-72.33310361,-6.147,0.018,14.593,3.846,20.3,1,1,1
188.224,56.493,315.299,110.159,0.032,46.75235408,-72.33310967,-6.156,-0.018,14.613,29.147,20.3,1,1,1
188.724,53.417,315.087,112.829,0.031,46.75235407,-72.33311576,-6.149,0.014,14.633,41.807,20.3,1,1,1
189.224,50.342,314.915,114.729,0.029,46.75235407,-72.33312207,-6.152,-0.006,14.653,53.069,20.3,1,1,1
189.724,47.266,315.028,114.493,0.028,46.75235407,-72.33312839,-6.149,0.007,14.673,97.017,20.3,1,1,1
190.224,44.192,315.232,114.645,0.028,46.75235407,-72.33313439,-6.148,0.002,14.693,37.004,20.3,1,1,1
190.724,41.118,315.41,116.73,0.027,46.75235407,-72.33313979,-6.147,0.002,14.713,30.197,20.3,1,1,1
191.224,38.046,315.592,116.032,0.027,46.75235407,-72.33314543,-6.142,0.01,14.733,46.093,20.3,1,1,1
191.724,34.973,315.515,116.736,0.026,46.75235407,-72.33315166,-6.149,-0.015,14.753,85.453,20.3,1,1,1
192.224,31.904,315.749,115.894,0.026,46.75235407,-72.33315878,-6.129,0.041,14.773,51.813,20.3,1,1,1
193.201,25.904,315.833,116.612,0.025,46.75235407,-72.33317308,-6.137,0.029,14.812,73.675,20.3,1,1,1
193.701,22.833,316.019,119.176,0.024,46.75235407,-72.33317983,-6.146,-0.019,14.832,11.982,20.3,1,1,1
194.201,19.762,316.041,118.072,0.024,46.75235407,-72.33318681,-6.14,0.013,14.852,84.423,20.3,1,1,1
194.701,16.691,316.237,116.683,0.024,46.75235407,-72.33319366,-6.142,-0.004,14.872,73.532,20.3,1,1,1
195.201,13.621,316.228,115.764,0.024,46.75235407,-72.33320035,-6.14,0.004,14.892,84.102,20.3,1,1,1
195.701,10.551,316.399,115.32,0.023,46.75235407,-72.33320687,-6.139,0.002,14.911,21.614,20.3,1,1,1
196.201,7.482,316.428,116.443,0.022,46.75235407,-72.33321296,-6.138,0.002,14.931,25.995,20.3,1,1,1
196.701,4.414,316.358,115.26,0.022,46.75235407,-72.33321905,-6.137,0.002,14.951,3.567,20.3,1,1,1
197.201,1.345,316.426,115.684,0.021,46.75235407,-72.3332253,-6.137,-0.0002216,14.971,42.043,20.3,1,1,1
