time,altitude,pitch,roll,yaw,lat,lon,speed,acceleration,temperature,vibrations,landing_force,batt_check,igniter_check,gps_check
0,0,0,0,0,46.752349,-72.337684,0,0,0,0,0,1,0,0
1,0,0,0,0,46.752349,-72.337684,0,0,0,0,0,1,0,0
2,0,0,0,0,46.752349,-72.337684,0,0,0,0,0,1,0,0
3,0,0,0,0,46.752349,-72.337684,0,0,0,0,0,1,1,0
4,0,0,0,0,46.752349,-72.337684,0,0,0,0,0,1,1,0
5,0,0,0,0,46.752349,-72.337684,0,0,0,0,0,1,1,0
6,0,0,0,0,46.752349,-72.337684,0,0,0,0,0,1,1,1
7,0,0,0,0,46.752349,-72.337684,0,0,0,0,0,1,1,1
8,0,0,0,0,46.752349,-72.337684,0,0,0,0,0,1,1,1
9,0,0,0,0,46.752349,-72.337684,0,0,0,0,0,1,1,1
10.01,0.001,0.0,0.0,0.0,46.752349,-72.337684,0.29,28.988,15.0,28.274,20.3,1,1,1
10.521,18.693,1.778,0.565,0.0,46.752349,-72.33766615,74.344,152.963,14.878,66.681,20.3,1,1,1
11.021,75.679,1.589,4.784,0.002,46.752349,-72.33760713,154.789,167.912,14.508,57.175,20.3,1,1,1
11.521,174.189,1.982,2.392,0.012,46.75234901,-72.33749562,238.525,162.352,13.868,20.695,20.3,1,1,1
12.021,312.751,1.488,-20.718,-0.17,46.75234903,-72.33733293,313.449,136.338,12.967,92.503,20.3,1,1,1
12.521,485.058,1.14,-41.043,-0.193,46.75234905,-72.33712587,373.162,106.381,11.847,46.819,20.3,1,1,1
13.06,695.573,1.143,-63.545,0.147,46.7523491,-72.33686854,384.67,-75.736,10.479,87.316,20.3,1,1,1
13.56,878.877,1.028,-67.059,0.154,46.75234914,-72.33664193,349.529,-63.968,9.287,90.875,20.3,1,1,1
14.11,1062.223,1.124,-66.798,0.223,46.75234921,-72.33641252,318.433,-50.567,8.096,88.207,20.3,1,1,1
14.61,1215.453,1.187,-70.301,0.297,46.75234927,-72.33621817,295.098,-43.161,7.1,11.761,20.3,1,1,1
15.11,1357.856,1.034,-76.304,0.372,46.75234932,-72.33603497,274.977,-37.574,6.174,11.778,20.3,1,1,1
15.61,1490.838,1.144,-71.043,0.369,46.75234939,-72.3358612,257.308,-33.291,5.31,5.958,20.3,1,1,1
16.11,1615.481,1.036,-69.128,0.321,46.75234945,-72.33569558,241.546,-29.881,4.499,87.527,20.3,1,1,1
16.61,1732.64,1.037,-73.891,0.316,46.75234952,-72.3355371,227.323,-27.121,3.738,99.212,20.3,1,1,1
17.11,1843.011,1.059,-75.887,0.324,46.75234958,-72.33538489,214.351,-24.848,3.02,98.168,20.3,1,1,1
17.61,1947.167,0.888,-73.606,0.329,46.75234966,-72.33523824,202.429,-22.882,2.343,51.02,20.3,1,1,1
18.11,2045.587,0.709,-71.125,0.36,46.75234974,-72.33509655,191.385,-21.26,1.704,32.388,20.3,1,1,1
18.61,2138.676,0.762,-69.687,0.503,46.75234982,-72.33495933,181.087,-19.904,1.099,26.507,20.3,1,1,1
19.11,2226.78,0.474,-70.563,0.476,46.75234989,-72.33482613,171.425,-18.716,0.526,97.266,20.3,1,1,1
19.61,2310.195,0.393,-70.24,0.472,46.75234998,-72.33469658,162.319,-17.669,-0.016,66.069,20.3,1,1,1
20.11,2389.181,-0.103,-70.699,0.455,46.75235006,-72.3345704,153.696,-16.821,-0.53,15.101,20.3,1,1,1
20.61,2463.966,-0.588,-73.135,0.381,46.75235015,-72.33444722,145.503,-16.037,-1.016,85.053,20.3,1,1,1
21.11,2534.748,-0.492,-73.683,0.312,46.75235024,-72.33432681,137.685,-15.308,-1.476,75.149,20.3,1,1,1
21.61,2601.704,0.042,-73.202,0.319,46.75235033,-72.33420895,130.194,-14.684,-1.911,15.434,20.3,1,1,1
22.11,2664.989,1.091,-73.674,0.323,46.75235042,-72.33409342,123.0,-14.092,-2.322,80.361,20.3,1,1,1
22.61,2724.745,0.443,-71.779,0.324,46.75235052,-72.33398008,116.06,-13.617,-2.711,58.725,20.3,1,1,1
23.11,2781.093,0.904,-73.709,0.356,46.75235062,-72.33386873,109.37,-13.195,-3.077,47.734,20.3,1,1,1
23.61,2834.147,1.297,-72.098,0.341,46.75235072,-72.33375919,102.882,-12.759,-3.422,7.947,20.3,1,1,1
24.11,2884.008,2.835,-69.941,0.323,46.75235083,-72.33365139,96.59,-12.408,-3.746,56.491,20.3,1,1,1
24.61,2930.764,2.263,-68.668,0.315,46.75235092,-72.33354513,90.463,-12.069,-4.05,12.869,20.3,1,1,1
25.11,2974.499,4.422,-67.43,0.349,46.75235103,-72.33344039,84.501,-11.803,-4.334,78.98,20.3,1,1,1
25.61,3015.284,2.181,-65.828,0.361,46.75235114,-72.33333697,78.662,-11.534,-4.599,51.715,20.3,1,1,1
26.11,3053.185,4.563,-64.327,0.353,46.75235126,-72.33323475,72.964,-11.259,-4.846,41.529,20.3,1,1,1
26.61,3088.267,6.029,-62.297,0.355,46.75235137,-72.33313379,67.38,-11.096,-5.074,94.033,20.3,1,1,1
27.11,3120.578,2.964,-61.863,0.383,46.75235149,-72.33303383,61.879,-10.888,-5.284,98.796,20.3,1,1,1
27.61,3150.168,8.235,-60.436,0.373,46.75235161,-72.33293485,56.499,-10.678,-5.476,53.958,20.3,1,1,1
28.11,3177.086,3.818,-59.953,0.394,46.75235172,-72.33283691,51.181,-10.593,-5.651,7.147,20.3,1,1,1
28.61,3201.36,4.825,-58.27,0.435,46.75235185,-72.33273966,45.931,-10.395,-5.809,25.29,20.3,1,1,1
29.11,3223.034,13.122,-57.184,0.42,46.75235198,-72.33264324,40.777,-10.254,-5.95,51.495,20.3,1,1,1
29.61,3242.144,16.484,-54.91,1.173,46.7523521,-72.33254766,35.665,-10.193,-6.074,24.541,20.3,1,1,1
30.11,3258.706,24.867,-53.217,1.803,46.75235224,-72.3324527,30.594,-10.084,-6.182,89.469,20.3,1,1,1
30.61,3272.749,37.697,-51.54,1.803,46.75235237,-72.33235833,25.584,-9.959,-6.273,41.025,20.3,1,1,1
31.11,3284.3,54.52,-50.478,1.787,46.75235251,-72.3322646,20.63,-9.876,-6.348,47.193,20.3,1,1,1
31.61,3293.385,75.747,-49.318,1.772,46.75235264,-72.3321715,15.716,-9.788,-6.407,50.497,20.3,1,1,1
32.11,3300.023,101.513,-47.33,1.766,46.75235279,-72.332079,10.841,-9.708,-6.45,80.219,20.3,1,1,1
32.61,3304.233,131.992,-46.698,1.772,46.75235293,-72.33198704,6.005,-9.641,-6.478,77.447,20.3,1,1,1
33.11,3306.034,166.989,-45.996,1.786,46.75235307,-72.33189557,1.205,-9.568,-6.489,6.532,20.3,1,1,1
33.650999999999996,3305.284,173.522,-45.906,1.788,46.75235323,-72.33179967,-3.983,-9.605,-6.49,94.012,20.3,1,1,1
34.43,3299.555,173.061,-47.194,1.788,46.75235343,-72.33168215,-10.622,-8.259,-6.472,67.128,20.3,1,1,1
35.422,3285.449,173.628,-43.191,1.787,46.75235365,-72.33156255,-17.562,-6.524,-6.407,44.87,20.3,1,1,1
36.402,3265.7,173.977,-39.02,1.786,46.75235382,-72.33147329,-22.493,-4.535,-6.295,39.74,20.3,1,1,1
36.902,3253.996,174.225,-37.591,1.786,46.75235389,-72.33143763,-24.325,-3.665,-6.227,28.396,20.3,1,1,1
37.402,3241.479,174.331,-37.888,1.785,46.75235396,-72.33140778,-25.743,-2.834,-6.151,31.82,20.3,1,1,1
37.902,3228.34,174.437,-38.99,1.784,46.75235402,-72.33138316,-26.814,-2.144,-6.07,48.115,20.3,1,1,1
38.402,3214.733,174.211,-38.912,1.784,46.75235406,-72.33136315,-27.612,-1.595,-5.984,62.04,20.3,1,1,1
38.902,3200.783,173.981,-36.51,1.784,46.75235411,-72.33134715,-28.188,-1.152,-5.896,8.451,20.3,1,1,1
39.402,3186.586,174.193,-37.814,1.783,46.75235414,-72.33133465,-28.602,-0.829,-5.805,45.23,20.3,1,1,1
39.902,3172.211,174.025,-36.471,1.783,46.75235417,-72.33132518,-28.894,-0.584,-5.713,1.854,20.3,1,1,1
40.402,3157.713,173.962,-35.067,1.782,46.7523542,-72.33131828,-29.098,-0.408,-5.619,16.668,20.3,1,1,1
40.902,3143.128,174.152,-35.466,1.781,46.75235423,-72.33131347,-29.241,-0.286,-5.525,36.1,20.3,1,1,1
41.402,3128.485,174.325,-34.361,1.78,46.75235424,-72.33131039,-29.334,-0.185,-5.43,50.509,20.3,1,1,1
41.902,3113.803,174.171,-32.42,1.78,46.75235425,-72.33130885,-29.392,-0.116,-5.335,40.704,20.3,1,1,1
42.402,3099.099,173.926,-32.942,1.78,46.75235427,-72.33130869,-29.426,-0.069,-5.24,45.941,20.3,1,1,1
42.902,3084.381,173.81,-30.568,1.779,46.75235428,-72.33130969,-29.444,-0.036,-5.144,21.656,20.3,1,1,1
43.402,3069.657,173.865,-29.986,1.779,46.75235429,-72.33131172,-29.45,-0.011,-5.048,52.776,20.3,1,1,1
43.902,3054.932,173.704,-31.308,1.779,46.7523543,-72.33131455,-29.45,0.0004254,-4.953,11.95,20.3,1,1,1
44.402,3040.209,173.774,-28.626,1.779,46.75235431,-72.33131803,-29.442,0.016,-4.857,95.208,20.3,1,1,1
44.902,3025.491,173.549,-27.054,1.778,46.75235431,-72.3313221,-29.43,0.023,-4.761,70.103,20.3,1,1,1
45.402,3010.78,173.783,-24.061,1.778,46.75235431,-72.33132663,-29.416,0.028,-4.666,5.423,20.3,1,1,1
45.902,2996.076,173.749,-22.974,1.777,46.75235431,-72.33133146,-29.4,0.033,-4.57,59.991,20.3,1,1,1
46.402,2981.38,173.748,-24.433,1.777,46.75235431,-72.33133657,-29.382,0.036,-4.474,22.601,20.3,1,1,1
46.902,2966.694,173.93,-22.776,1.777,46.75235431,-72.33134188,-29.362,0.039,-4.379,60.238,20.3,1,1,1
47.402,2952.018,173.954,-20.481,1.776,46.75235432,-72.33134732,-29.342,0.041,-4.284,20.543,20.3,1,1,1
47.902,2937.353,174.149,-18.12,1.776,46.75235432,-72.33135291,-29.32,0.043,-4.188,43.274,20.3,1,1,1
48.402,2922.698,174.009,-17.694,1.776,46.75235432,-72.33135855,-29.299,0.043,-4.093,27.349,20.3,1,1,1
48.902,2908.054,173.925,-19.137,1.775,46.75235432,-72.33136413,-29.277,0.044,-3.998,15.851,20.3,1,1,1
49.402,2893.421,174.032,-18.025,1.775,46.75235432,-72.33136968,-29.255,0.044,-3.902,79.774,20.3,1,1,1
49.902,2878.799,174.185,-18.945,1.774,46.75235432,-72.33137536,-29.232,0.045,-3.807,4.515,20.3,1,1,1
50.402,2864.189,174.382,-16.621,1.774,46.75235432,-72.33138134,-29.209,0.046,-3.712,69.68,20.3,1,1,1
50.902,2849.59,174.312,-18.477,1.773,46.75235432,-72.33138761,-29.187,0.044,-3.617,89.37,20.3,1,1,1
51.402,2835.001,174.415,-15.899,1.772,46.75235432,-72.33139404,-29.165,0.044,-3.522,85.029,20.3,1,1,1
51.902,2820.424,174.658,-15.662,1.772,46.75235432,-72.33140051,-29.143,0.044,-3.428,31.935,20.3,1,1,1
52.402,2805.858,174.619,-16.617,1.771,46.75235431,-72.33140698,-29.122,0.044,-3.333,86.594,20.3,1,1,1
52.902,2791.303,174.462,-14.438,1.771,46.75235431,-72.3314135,-29.1,0.044,-3.238,24.198,20.3,1,1,1
53.402,2776.758,174.478,-13.266,1.77,46.75235431,-72.3314201,-29.078,0.044,-3.143,66.699,20.3,1,1,1
53.902,2762.225,174.568,-14.158,1.77,46.75235431,-72.33142666,-29.056,0.044,-3.049,81.631,20.3,1,1,1
54.402,2747.702,174.685,-14.617,1.769,46.75235431,-72.33143312,-29.034,0.043,-2.954,5.468,20.3,1,1,1
54.902,2733.19,174.889,-16.252,1.769,46.75235431,-72.33143955,-29.013,0.043,-2.86,62.04,20.3,1,1,1
55.402,2718.69,175.108,-13.328,1.769,46.75235431,-72.33144603,-28.991,0.043,-2.766,33.338,20.3,1,1,1
55.902,2704.199,175.137,-14.542,1.769,46.75235431,-72.33145254,-28.97,0.043,-2.671,44.856,20.3,1,1,1
56.402,2689.72,174.898,-15.028,1.768,46.75235431,-72.33145903,-28.948,0.043,-2.577,14.817,20.3,1,1,1
56.902,2675.251,174.917,-16.486,1.767,46.75235431,-72.33146558,-28.927,0.043,-2.483,5.011,20.3,1,1,1
57.402,2660.793,175.131,-17.983,1.767,46.75235431,-72.33147213,-28.905,0.043,-2.389,67.802,20.3,1,1,1
57.902,2646.346,174.883,-19.443,1.767,46.75235431,-72.33147861,-28.884,0.042,-2.295,9.386,20.3,1,1,1
58.402,2631.909,174.941,-19.681,1.767,46.75235431,-72.33148501,-28.863,0.042,-2.201,96.342,20.3,1,1,1
58.902,2617.483,174.859,-19.733,1.766,46.75235431,-72.33149143,-28.842,0.042,-2.107,38.653,20.3,1,1,1
59.402,2603.067,175.029,-18.74,1.766,46.75235431,-72.33149797,-28.821,0.042,-2.014,60.126,20.3,1,1,1
59.902,2588.662,175.013,-18.855,1.765,46.75235431,-72.33150446,-28.8,0.042,-1.92,32.654,20.3,1,1,1
60.402,2574.267,175.025,-18.888,1.765,46.7523543,-72.3315108,-28.779,0.042,-1.826,98.381,20.3,1,1,1
60.902,2559.883,175.001,-18.943,1.764,46.7523543,-72.33151694,-28.758,0.042,-1.733,63.527,20.3,1,1,1
61.402,2545.509,175.062,-18.046,1.764,46.7523543,-72.33152298,-28.738,0.041,-1.639,69.087,20.3,1,1,1
61.902,2531.145,175.055,-17.024,1.763,46.7523543,-72.33152905,-28.717,0.041,-1.546,91.878,20.3,1,1,1
62.402,2516.792,174.841,-14.939,1.763,46.7523543,-72.33153513,-28.697,0.041,-1.452,54.463,20.3,1,1,1
62.902,2502.449,174.837,-14.358,1.762,46.7523543,-72.33154121,-28.676,0.041,-1.359,54.677,20.3,1,1,1
63.402,2488.116,175.049,-13.085,1.762,46.7523543,-72.33154722,-28.656,0.041,-1.266,85.939,20.3,1,1,1
63.902,2473.793,175.261,-13.956,1.762,46.75235429,-72.33155309,-28.635,0.041,-1.173,54.908,20.3,1,1,1
64.402,2459.481,175.244,-13.539,1.761,46.75235429,-72.33155898,-28.614,0.042,-1.08,11.96,20.3,1,1,1
64.902,2445.179,175.06,-13.637,1.761,46.75235429,-72.33156497,-28.593,0.042,-0.987,61.067,20.3,1,1,1
65.402,2430.888,175.181,-12.83,1.76,46.75235429,-72.33157101,-28.572,0.042,-0.894,66.906,20.3,1,1,1
65.902,2416.607,175.237,-12.506,1.759,46.75235429,-72.33157718,-28.551,0.043,-0.801,95.551,20.3,1,1,1
66.402,2402.337,175.475,-9.891,1.759,46.75235429,-72.33158352,-28.53,0.042,-0.708,43.298,20.3,1,1,1
66.902,2388.077,175.357,-10.77,1.759,46.75235429,-72.33158994,-28.509,0.042,-0.615,0.369,20.3,1,1,1
67.402,2373.828,175.331,-8.018,1.758,46.75235428,-72.33159635,-28.488,0.042,-0.523,70.388,20.3,1,1,1
67.902,2359.59,175.205,-6.58,1.758,46.75235428,-72.33160281,-28.467,0.042,-0.43,9.383,20.3,1,1,1
68.402,2345.362,175.384,-8.381,1.757,46.75235428,-72.33160934,-28.446,0.042,-0.337,32.814,20.3,1,1,1
68.902,2331.144,175.142,-9.238,1.757,46.75235428,-72.33161589,-28.425,0.042,-0.245,26.741,20.3,1,1,1
69.402,2316.937,175.274,-9.452,1.757,46.75235428,-72.33162244,-28.404,0.042,-0.152,71.908,20.3,1,1,1
69.902,2302.74,175.519,-7.179,1.756,46.75235428,-72.33162904,-28.383,0.041,-0.06,74.501,20.3,1,1,1
70.402,2288.553,175.355,-6.799,1.755,46.75235428,-72.33163567,-28.363,0.041,0.032,12.964,20.3,1,1,1
70.902,2274.377,175.281,-6.661,1.755,46.75235427,-72.33164226,-28.342,0.041,0.124,13.725,20.3,1,1,1
71.402,2260.211,175.233,-4.628,1.755,46.75235427,-72.33164875,-28.322,0.041,0.217,38.031,20.3,1,1,1
71.902,2246.055,175.247,-3.352,1.754,46.75235427,-72.33165509,-28.301,0.041,0.309,23.038,20.3,1,1,1
72.402,2231.91,175.223,-1.396,1.754,46.75235427,-72.33166132,-28.281,0.041,0.401,11.06,20.3,1,1,1
72.902,2217.775,175.284,-0.476,1.753,46.75235427,-72.33166748,-28.261,0.04,0.493,44.939,20.3,1,1,1
73.402,2203.649,175.162,-1.477,1.753,46.75235427,-72.33167369,-28.24,0.041,0.584,66.33,20.3,1,1,1
73.902,2189.534,175.365,-3.475,1.753,46.75235427,-72.33167992,-28.22,0.04,0.676,90.479,20.3,1,1,1
74.402,2175.429,175.556,-3.247,1.752,46.75235426,-72.33168596,-28.2,0.041,0.768,35.716,20.3,1,1,1
74.902,2161.334,175.71,-1.201,1.751,46.75235426,-72.33169176,-28.18,0.04,0.86,28.84,20.3,1,1,1
75.402,2147.249,175.814,-2.434,1.751,46.75235426,-72.33169754,-28.16,0.04,0.951,32.182,20.3,1,1,1
75.902,2133.174,175.842,-4.039,1.751,46.75235426,-72.33170333,-28.14,0.039,1.043,51.457,20.3,1,1,1
76.402,2119.109,175.789,-2.535,1.751,46.75235426,-72.33170914,-28.121,0.039,1.134,99.833,20.3,1,1,1
76.902,2105.053,175.9,-4.29,1.75,46.75235426,-72.33171497,-28.101,0.039,1.226,68.82,20.3,1,1,1
77.402,2091.008,175.805,-3.188,1.75,46.75235426,-72.33172079,-28.081,0.039,1.317,94.012,20.3,1,1,1
77.902,2076.972,176.036,-4.891,1.75,46.75235425,-72.33172657,-28.062,0.039,1.408,44.364,20.3,1,1,1
78.402,2062.946,176.206,-6.81,1.749,46.75235425,-72.33173225,-28.042,0.039,1.5,35.737,20.3,1,1,1
78.902,2048.929,176.14,-4.527,1.749,46.75235425,-72.33173795,-28.023,0.039,1.591,62.443,20.3,1,1,1
79.402,2034.923,176.257,-2.253,1.748,46.75235425,-72.33174376,-28.003,0.039,1.682,29.52,20.3,1,1,1
79.902,2020.926,176.144,-2.305,1.748,46.75235425,-72.33174967,-27.984,0.038,1.773,1.114,20.3,1,1,1
80.402,2006.939,176.329,-1.31,1.748,46.75235425,-72.33175574,-27.965,0.039,1.864,91.427,20.3,1,1,1
80.902,1992.961,176.316,-0.026,1.747,46.75235425,-72.33176208,-27.945,0.039,1.955,35.492,20.3,1,1,1
81.402,1978.993,176.097,-0.042,1.747,46.75235425,-72.33176851,-27.926,0.038,2.046,90.91,20.3,1,1,1
81.902,1965.035,176.08,2.087,1.747,46.75235424,-72.33177488,-27.907,0.039,2.137,76.682,20.3,1,1,1
82.402,1951.087,176.17,3.912,1.746,46.75235424,-72.33178123,-27.887,0.039,2.227,69.745,20.3,1,1,1
82.902,1937.148,176.093,5.033,1.746,46.75235424,-72.33178759,-27.867,0.04,2.318,96.117,20.3,1,1,1
83.402,1923.219,176.112,4.5,1.746,46.75235424,-72.33179389,-27.847,0.04,2.409,86.328,20.3,1,1,1
83.902,1909.3,176.152,7.261,1.745,46.75235424,-72.33180012,-27.828,0.04,2.499,57.491,20.3,1,1,1
84.402,1895.392,176.284,7.729,1.745,46.75235424,-72.33180629,-27.808,0.04,2.59,87.427,20.3,1,1,1
84.902,1881.493,176.427,10.391,1.744,46.75235424,-72.3318125,-27.788,0.04,2.68,49.906,20.3,1,1,1
85.402,1867.604,176.361,9.586,1.744,46.75235423,-72.33181871,-27.768,0.039,2.77,20.574,20.3,1,1,1
85.902,1853.724,176.261,11.213,1.744,46.75235423,-72.33182498,-27.749,0.04,2.861,34.617,20.3,1,1,1
86.402,1839.855,176.33,13.648,1.743,46.75235423,-72.33183127,-27.729,0.039,2.951,94.163,20.3,1,1,1
86.902,1825.995,176.432,12.045,1.743,46.75235423,-72.3318375,-27.709,0.039,3.041,89.939,20.3,1,1,1
87.402,1812.146,176.514,11.022,1.743,46.75235423,-72.33184377,-27.69,0.039,3.131,32.15,20.3,1,1,1
87.902,1798.306,176.44,10.002,1.742,46.75235423,-72.33184995,-27.67,0.039,3.221,50.839,20.3,1,1,1
88.402,1784.475,176.406,12.626,1.742,46.75235423,-72.331856,-27.651,0.039,3.311,60.733,20.3,1,1,1
88.902,1770.654,176.652,12.137,1.742,46.75235423,-72.33186211,-27.632,0.039,3.401,23.483,20.3,1,1,1
89.402,1756.843,176.444,13.477,1.742,46.75235423,-72.33186828,-27.613,0.038,3.491,68.525,20.3,1,1,1
89.902,1743.042,176.582,15.104,1.741,46.75235423,-72.33187455,-27.593,0.039,3.581,13.732,20.3,1,1,1
90.402,1729.25,176.799,16.849,1.741,46.75235423,-72.33188105,-27.574,0.038,3.67,51.788,20.3,1,1,1
90.902,1715.468,176.751,14.937,1.74,46.75235423,-72.33188758,-27.555,0.038,3.76,80.067,20.3,1,1,1
91.402,1701.695,176.898,14.07,1.74,46.75235423,-72.33189403,-27.536,0.038,3.849,76.396,20.3,1,1,1
91.902,1687.932,176.865,15.178,1.739,46.75235423,-72.3319004,-27.517,0.038,3.939,14.386,20.3,1,1,1
92.402,1674.178,176.72,18.084,1.739,46.75235423,-72.33190671,-27.499,0.037,4.028,49.984,20.3,1,1,1
92.902,1660.433,176.558,20.006,1.739,46.75235422,-72.33191304,-27.48,0.037,4.118,57.99,20.3,1,1,1
93.402,1646.698,176.365,22.342,1.738,46.75235422,-72.33191931,-27.461,0.037,4.207,70.545,20.3,1,1,1
93.902,1632.972,176.181,23.984,1.738,46.75235422,-72.33192545,-27.443,0.037,4.296,43.878,20.3,1,1,1
94.402,1619.255,176.055,22.235,1.737,46.75235422,-72.33193153,-27.424,0.037,4.386,28.469,20.3,1,1,1
94.902,1605.548,175.956,23.635,1.737,46.75235422,-72.33193756,-27.406,0.037,4.475,67.75,20.3,1,1,1
95.402,1591.85,175.844,23.82,1.736,46.75235422,-72.33194349,-27.387,0.037,4.564,20.561,20.3,1,1,1
95.902,1578.161,175.651,22.304,1.736,46.75235422,-72.33194927,-27.369,0.037,4.653,22.839,20.3,1,1,1
96.402,1564.481,175.558,23.555,1.736,46.75235421,-72.33195502,-27.35,0.037,4.742,31.766,20.3,1,1,1
96.902,1550.81,175.57,25.799,1.735,46.75235421,-72.33196086,-27.332,0.037,4.831,50.154,20.3,1,1,1
97.402,1537.149,175.613,25.351,1.735,46.75235421,-72.33196681,-27.314,0.036,4.92,77.944,20.3,1,1,1
97.902,1523.497,175.834,25.216,1.734,46.75235421,-72.33197282,-27.296,0.036,5.009,41.683,20.3,1,1,1
98.402,1509.853,175.826,23.81,1.734,46.75235421,-72.33197887,-27.278,0.036,5.097,47.773,20.3,1,1,1
98.902,1496.219,175.625,26.566,1.733,46.75235421,-72.33198495,-27.26,0.036,5.186,99.234,20.3,1,1,1
99.402,1482.594,175.767,29.476,1.732,46.75235421,-72.33199119,-27.241,0.037,5.275,61.83,20.3,1,1,1
99.902,1468.978,175.616,29.3,1.732,46.75235421,-72.3319976,-27.223,0.037,5.363,2.739,20.3,1,1,1
100.402,1455.371,175.377,30.703,1.731,46.7523542,-72.33200402,-27.204,0.037,5.452,8.229,20.3,1,1,1
100.902,1441.773,175.414,30.293,1.731,46.7523542,-72.33201035,-27.186,0.037,5.54,69.006,20.3,1,1,1
101.402,1428.185,175.375,29.008,1.73,46.7523542,-72.33201653,-27.167,0.037,5.628,73.998,20.3,1,1,1
101.902,1414.606,175.516,27.431,1.729,46.7523542,-72.33202258,-27.148,0.037,5.717,58.35,20.3,1,1,1
102.402,1401.037,175.335,28.228,1.728,46.7523542,-72.33202873,-27.13,0.038,5.805,85.535,20.3,1,1,1
102.902,1387.477,175.515,30.497,1.728,46.7523542,-72.33203498,-27.111,0.037,5.893,67.85,20.3,1,1,1
103.402,1373.926,175.585,32.042,1.728,46.7523542,-72.33204118,-27.093,0.037,5.981,85.751,20.3,1,1,1
103.902,1360.384,175.828,34.629,1.728,46.75235419,-72.33204732,-27.074,0.037,6.069,96.107,20.3,1,1,1
104.402,1346.852,175.966,33.214,1.727,46.75235419,-72.33205344,-27.056,0.037,6.158,88.954,20.3,1,1,1
104.902,1333.328,175.885,34.607,1.727,46.75235419,-72.33205955,-27.037,0.037,6.245,16.041,20.3,1,1,1
105.402,1319.814,175.689,35.99,1.726,46.75235419,-72.3320657,-27.019,0.037,6.333,67.927,20.3,1,1,1
105.902,1306.309,175.529,36.261,1.725,46.75235419,-72.33207186,-27.001,0.037,6.421,32.59,20.3,1,1,1
106.402,1292.813,175.533,36.611,1.725,46.75235419,-72.33207796,-26.982,0.037,6.509,38.783,20.3,1,1,1
106.902,1279.327,175.753,34.659,1.724,46.75235419,-72.33208401,-26.964,0.036,6.597,75.721,20.3,1,1,1
107.402,1265.849,175.811,34.188,1.724,46.75235419,-72.33209009,-26.946,0.036,6.684,44.849,20.3,1,1,1
107.902,1252.38,175.879,35.254,1.723,46.75235418,-72.3320961,-26.928,0.037,6.772,73.182,20.3,1,1,1
108.402,1238.921,175.735,33.404,1.723,46.75235418,-72.33210196,-26.91,0.036,6.86,36.97,20.3,1,1,1
108.902,1225.47,175.716,34.222,1.723,46.75235418,-72.33210775,-26.892,0.036,6.947,12.746,20.3,1,1,1
109.402,1212.029,175.789,35.401,1.723,46.75235418,-72.33211354,-26.874,0.036,7.034,40.146,20.3,1,1,1
109.902,1198.596,175.897,35.587,1.722,46.75235418,-72.33211944,-26.856,0.036,7.122,81.404,20.3,1,1,1
110.402,1185.172,175.887,37.011,1.721,46.75235418,-72.33212549,-26.839,0.036,7.209,65.653,20.3,1,1,1
110.902,1171.757,175.995,39.762,1.721,46.75235418,-72.3321317,-26.821,0.035,7.296,97.06,20.3,1,1,1
111.402,1158.351,176.168,38.679,1.721,46.75235418,-72.33213805,-26.803,0.035,7.384,49.561,20.3,1,1,1
111.902,1144.954,176.368,40.587,1.72,46.75235417,-72.33214447,-26.786,0.035,7.471,78.462,20.3,1,1,1
112.402,1131.566,176.549,39.685,1.72,46.75235417,-72.33215088,-26.768,0.035,7.558,24.876,20.3,1,1,1
112.902,1118.186,176.69,38.271,1.72,46.75235417,-72.33215736,-26.751,0.035,7.645,40.797,20.3,1,1,1
113.402,1104.815,176.444,37.812,1.719,46.75235417,-72.3321639,-26.734,0.035,7.732,56.521,20.3,1,1,1
113.902,1091.452,176.286,39.884,1.719,46.75235417,-72.33217054,-26.716,0.035,7.819,77.612,20.3,1,1,1
114.402,1078.099,176.36,42.173,1.719,46.75235417,-72.33217723,-26.699,0.034,7.906,54.143,20.3,1,1,1
114.902,1064.753,176.229,42.036,1.719,46.75235417,-72.33218397,-26.682,0.035,7.992,51.447,20.3,1,1,1
115.402,1051.417,176.345,41.069,1.718,46.75235416,-72.33219076,-26.664,0.034,8.079,61.045,20.3,1,1,1
115.902,1038.089,176.3,39.655,1.718,46.75235416,-72.33219757,-26.647,0.034,8.166,43.17,20.3,1,1,1
116.402,1024.77,176.468,41.609,1.717,46.75235416,-72.33220434,-26.63,0.034,8.252,25.068,20.3,1,1,1
116.902,1011.459,176.514,44.19,1.717,46.75235416,-72.33221096,-26.613,0.034,8.339,92.532,20.3,1,1,1
117.402,998.156,176.559,44.105,1.717,46.75235416,-72.33221746,-26.596,0.034,8.426,86.665,20.3,1,1,1
117.902,984.863,176.345,44.936,1.717,46.75235416,-72.3322239,-26.579,0.034,8.512,29.905,20.3,1,1,1
118.402,971.577,176.269,42.951,1.716,46.75235416,-72.33223032,-26.562,0.034,8.598,65.45,20.3,1,1,1
118.902,958.301,176.46,44.708,1.716,46.75235415,-72.33223676,-26.545,0.035,8.685,25.778,20.3,1,1,1
119.402,945.033,176.314,44.42,1.715,46.75235415,-72.3322432,-26.527,0.035,8.771,16.704,20.3,1,1,1
119.902,931.773,176.311,42.816,1.715,46.75235415,-72.3322497,-26.509,0.035,8.857,56.26,20.3,1,1,1
120.402,918.523,176.255,41.158,1.714,46.75235415,-72.33225632,-26.492,0.035,8.943,71.749,20.3,1,1,1
120.902,905.282,176.239,42.506,1.714,46.75235415,-72.33226304,-26.474,0.035,9.03,86.867,20.3,1,1,1
121.402,892.049,176.229,43.149,1.713,46.75235415,-72.33226981,-26.457,0.035,9.116,16.405,20.3,1,1,1
121.902,878.825,176.272,45.933,1.712,46.75235415,-72.3322765,-26.439,0.035,9.202,5.339,20.3,1,1,1
122.402,865.61,176.45,45.95,1.712,46.75235415,-72.33228303,-26.422,0.035,9.288,29.799,20.3,1,1,1
122.902,852.403,176.328,45.631,1.712,46.75235414,-72.33228934,-26.404,0.035,9.374,89.91,20.3,1,1,1
123.402,839.205,176.468,48.594,1.712,46.75235414,-72.33229545,-26.387,0.034,9.459,55.861,20.3,1,1,1
123.902,826.016,176.466,50.216,1.711,46.75235414,-72.33230156,-26.37,0.034,9.545,87.152,20.3,1,1,1
124.402,812.836,176.683,48.851,1.711,46.75235414,-72.33230776,-26.353,0.034,9.631,73.325,20.3,1,1,1
124.902,799.664,176.9,51.758,1.711,46.75235414,-72.332314,-26.335,0.034,9.717,83.828,20.3,1,1,1
125.402,786.5,176.834,53.054,1.711,46.75235414,-72.33232019,-26.318,0.034,9.802,86.505,20.3,1,1,1
125.902,773.345,177.057,53.111,1.71,46.75235414,-72.33232631,-26.301,0.034,9.888,57.303,20.3,1,1,1
126.402,760.199,177.25,55.101,1.71,46.75235414,-72.33233242,-26.284,0.034,9.973,47.38,20.3,1,1,1
126.902,747.061,177.247,57.353,1.709,46.75235414,-72.33233855,-26.267,0.034,10.059,55.402,20.3,1,1,1
127.402,733.931,177.213,59.933,1.708,46.75235414,-72.33234471,-26.25,0.034,10.144,70.32,20.3,1,1,1
127.902,720.81,177.168,59.634,1.708,46.75235414,-72.3323509,-26.234,0.034,10.229,60.804,20.3,1,1,1
128.902,694.594,176.924,57.29,1.707,46.75235414,-72.33236349,-26.2,0.033,10.4,91.568,20.3,1,1,1
129.402,681.498,176.794,57.059,1.706,46.75235414,-72.33236972,-26.183,0.033,10.485,6.125,20.3,1,1,1
129.902,668.41,176.799,57.098,1.705,46.75235414,-72.33237582,-26.167,0.033,10.57,3.175,20.3,1,1,1
130.402,655.331,176.585,58.104,1.705,46.75235413,-72.3323817,-26.15,0.034,10.655,14.568,20.3,1,1,1
130.902,642.26,176.572,58.637,1.705,46.75235413,-72.33238747,-26.134,0.033,10.74,46.051,20.3,1,1,1
131.402,629.197,176.753,57.939,1.704,46.75235413,-72.33239326,-26.117,0.033,10.825,53.136,20.3,1,1,1
131.902,616.143,176.625,56.811,1.704,46.75235413,-72.33239902,-26.101,0.033,10.91,49.892,20.3,1,1,1
132.402,603.097,176.59,55.771,1.703,46.75235413,-72.33240486,-26.084,0.033,10.995,48.234,20.3,1,1,1
132.902,590.059,176.386,53.83,1.703,46.75235413,-72.33241088,-26.068,0.033,11.08,33.879,20.3,1,1,1
133.402,577.029,176.616,53.648,1.702,46.75235413,-72.33241705,-26.052,0.032,11.165,43.187,20.3,1,1,1
133.902,564.007,176.407,53.626,1.702,46.75235413,-72.33242327,-26.036,0.032,11.249,55.402,20.3,1,1,1
134.402,550.993,176.379,54.45,1.702,46.75235412,-72.33242949,-26.019,0.032,11.334,2.877,20.3,1,1,1
134.902,537.987,176.489,55.672,1.701,46.75235412,-72.3324357,-26.003,0.032,11.419,44.385,20.3,1,1,1
135.402,524.99,176.735,57.956,1.701,46.75235412,-72.33244202,-25.987,0.032,11.503,72.917,20.3,1,1,1
135.902,512.0,176.539,58.783,1.7,46.75235412,-72.33244828,-25.971,0.032,11.588,95.87,20.3,1,1,1
136.402,499.019,176.635,57.133,1.7,46.75235412,-72.33245442,-25.955,0.032,11.672,61.633,20.3,1,1,1
136.902,486.045,176.864,56.251,1.699,46.75235412,-72.3324605,-25.939,0.032,11.756,91.306,20.3,1,1,1
137.402,473.079,176.711,58.036,1.699,46.75235412,-72.33246655,-25.923,0.032,11.841,74.872,20.3,1,1,1
137.902,460.122,176.813,59.326,1.698,46.75235412,-72.33247259,-25.907,0.033,11.925,24.846,20.3,1,1,1
138.402,447.173,176.765,62.252,1.698,46.75235411,-72.33247869,-25.89,0.033,12.009,26.127,20.3,1,1,1
138.902,434.232,176.952,62.41,1.697,46.75235411,-72.33248482,-25.874,0.033,12.093,32.919,20.3,1,1,1
139.402,421.299,177.069,64.09,1.697,46.75235411,-72.33249095,-25.857,0.033,12.177,34.594,20.3,1,1,1
139.902,408.375,177.156,62.829,1.696,46.75235411,-72.33249714,-25.841,0.033,12.262,65.404,20.3,1,1,1
140.402,395.458,176.944,62.552,1.696,46.75235411,-72.33250331,-25.824,0.033,12.346,29.244,20.3,1,1,1
140.902,382.551,176.987,64.03,1.695,46.75235411,-72.33250938,-25.808,0.033,12.43,92.647,20.3,1,1,1
141.402,369.651,176.903,62.082,1.694,46.75235411,-72.33251537,-25.791,0.033,12.513,47.524,20.3,1,1,1
141.902,356.759,176.936,60.09,1.693,46.75235411,-72.33252141,-25.775,0.033,12.597,6.195,20.3,1,1,1
142.402,343.876,176.829,63.072,1.693,46.7523541,-72.33252756,-25.758,0.032,12.681,56.475,20.3,1,1,1
142.916,337.479,177.254,76.205,1.678,46.7523541,-72.33253408,-7.874,6.686,12.805,73.051,20.3,1,1,1
143.469,333.655,177.232,80.126,1.677,46.7523541,-72.33254118,-6.405,1.141,12.824,21.87,20.3,1,1,1
144.224,328.914,177.171,80.803,1.676,46.7523541,-72.33255134,-6.214,0.102,12.842,30.481,20.3,1,1,1
144.724,325.8,177.398,83.366,1.675,46.7523541,-72.33255829,-6.243,-0.057,12.862,41.446,20.3,1,1,1
145.224,322.683,177.308,83.535,1.675,46.7523541,-72.33256491,-6.224,0.038,12.882,84.377,20.3,1,1,1
145.724,319.569,177.167,85.372,1.674,46.7523541,-72.33257121,-6.234,-0.021,12.903,66.172,20.3,1,1,1
146.224,316.454,177.17,86.652,1.674,46.7523541,-72.33257727,-6.226,0.016,12.923,68.391,20.3,1,1,1
146.724,313.34,177.321,85.413,1.674,46.7523541,-72.33258315,-6.23,-0.007,12.943,91.01,20.3,1,1,1
147.224,310.226,177.413,88.322,1.673,46.7523541,-72.33258894,-6.226,0.007,12.963,85.891,20.3,1,1,1
147.724,307.112,177.647,91.01,1.673,46.7523541,-72.33259492,-6.226,0.001,12.984,55.392,20.3,1,1,1
148.224,304.0,177.414,91.744,1.673,46.7523541,-72.33260116,-6.226,-0.0001997,13.004,36.043,20.3,1,1,1
148.724,300.888,177.607,89.972,1.672,46.7523541,-72.33260773,-6.222,0.007,13.024,6.606,20.3,1,1,1
149.224,297.776,177.673,92.251,1.671,46.7523541,-72.33261441,-6.224,-0.003,13.044,1.487,20.3,1,1,1
149.724,294.664,177.527,92.885,1.671,46.7523541,-72.33262067,-6.221,0.005,13.064,51.14,20.3,1,1,1
150.224,291.554,177.453,91.932,1.671,46.7523541,-72.33262694,-6.221,0.0001344,13.085,23.384,20.3,1,1,1
150.724,288.443,177.467,90.629,1.671,46.7523541,-72.33263322,-6.22,0.003,13.105,30.795,20.3,1,1,1
151.224,285.333,177.411,91.568,1.67,46.7523541,-72.33263916,-6.22,-3.584e-05,13.125,81.831,20.3,1,1,1
151.724,282.224,177.565,93.572,1.67,46.7523541,-72.33264514,-6.218,0.004,13.145,29.791,20.3,1,1,1
152.224,279.115,177.458,95.59,1.67,46.7523541,-72.33265151,-6.218,0.001,13.166,33.775,20.3,1,1,1
152.724,276.006,177.495,95.45,1.67,46.7523541,-72.33265807,-6.217,0.0004763,13.186,56.536,20.3,1,1,1
153.224,272.899,177.376,96.509,1.669,46.7523541,-72.33266505,-6.212,0.011,13.206,94.985,20.3,1,1,1
153.724,269.792,177.175,95.105,1.669,46.7523541,-72.33267221,-6.216,-0.009,13.226,6.163,20.3,1,1,1
154.224,266.685,177.251,93.16,1.668,46.7523541,-72.33267925,-6.213,0.006,13.246,23.682,20.3,1,1,1
154.724,263.578,177.056,92.41,1.668,46.7523541,-72.33268625,-6.213,-0.0001071,13.267,40.508,20.3,1,1,1
155.224,260.472,177.035,92.458,1.667,46.7523541,-72.3326932,-6.212,0.002,13.287,89.702,20.3,1,1,1
155.724,257.366,177.073,94.875,1.666,46.7523541,-72.33270031,-6.212,0.001,13.307,92.261,20.3,1,1,1
156.224,254.263,177.166,97.027,1.666,46.75235409,-72.33270672,-6.198,0.026,13.327,0.207,20.3,1,1,1
156.724,251.16,176.994,99.235,1.666,46.75235409,-72.33271222,-6.216,-0.036,13.347,4.43,20.3,1,1,1
157.224,248.055,176.786,101.249,1.665,46.75235409,-72.33271801,-6.201,0.03,13.367,79.788,20.3,1,1,1
157.724,244.952,177.002,101.572,1.665,46.75235409,-72.3327244,-6.211,-0.02,13.388,84.539,20.3,1,1,1
158.224,241.848,177.236,99.601,1.665,46.75235409,-72.33273075,-6.204,0.015,13.408,64.466,20.3,1,1,1
158.724,238.745,177.42,100.613,1.665,46.75235409,-72.33273671,-6.207,-0.007,13.428,4.728,20.3,1,1,1
159.224,235.643,177.378,103.08,1.664,46.75235409,-72.33274259,-6.204,0.006,13.448,37.795,20.3,1,1,1
159.724,232.541,177.403,102.538,1.664,46.75235409,-72.33274889,-6.203,0.003,13.468,70.573,20.3,1,1,1
160.224,229.439,177.554,104.798,1.663,46.75235409,-72.33275535,-6.203,-0.001,13.488,89.362,20.3,1,1,1
160.724,226.339,177.804,105.544,1.663,46.75235409,-72.33276129,-6.199,0.008,13.509,42.719,20.3,1,1,1
161.224,223.238,177.645,106.804,1.662,46.75235409,-72.33276703,-6.203,-0.006,13.529,92.659,20.3,1,1,1
161.724,220.138,177.731,106.036,1.662,46.75235409,-72.33277325,-6.198,0.01,13.549,13.127,20.3,1,1,1
162.224,217.039,177.671,107.445,1.662,46.75235409,-72.33277977,-6.201,-0.007,13.569,87.503,20.3,1,1,1
162.724,213.939,177.756,110.323,1.661,46.75235409,-72.33278605,-6.196,0.01,13.589,39.011,20.3,1,1,1
163.224,210.841,177.984,113.032,1.661,46.75235409,-72.33279233,-6.198,-0.003,13.609,26.482,20.3,1,1,1
163.724,207.743,178.116,113.011,1.661,46.75235409,-72.33279849,-6.194,0.007,13.63,6.757,20.3,1,1,1
164.224,204.646,178.359,114.091,1.66,46.75235409,-72.33280388,-6.194,-2.282e-06,13.65,59.987,20.3,1,1,1
164.724,201.549,178.605,112.129,1.66,46.75235409,-72.33280925,-6.193,0.003,13.67,20.271,20.3,1,1,1
165.224,198.452,178.619,110.78,1.659,46.75235409,-72.3328149,-6.195,-0.005,13.69,18.567,20.3,1,1,1
165.724,195.355,178.434,109.742,1.659,46.75235409,-72.33282035,-6.192,0.005,13.71,52.129,20.3,1,1,1
166.224,192.262,178.499,108.99,1.659,46.75235409,-72.33282652,-6.181,0.024,13.73,83.929,20.3,1,1,1
166.724,189.167,178.391,108.762,1.659,46.75235409,-72.3328334,-6.198,-0.035,13.75,71.254,20.3,1,1,1
167.224,186.071,178.288,109.276,1.658,46.75235409,-72.33284034,-6.186,0.024,13.77,96.598,20.3,1,1,1
167.724,182.977,178.338,109.959,1.658,46.75235409,-72.33284728,-6.192,-0.011,13.791,68.044,20.3,1,1,1
168.224,179.882,178.135,112.411,1.657,46.75235409,-72.33285412,-6.187,0.009,13.811,59.155,20.3,1,1,1
168.724,176.789,178.383,110.452,1.657,46.75235409,-72.33286055,-6.184,0.005,13.831,43.835,20.3,1,1,1
169.224,173.697,178.219,110.372,1.656,46.75235409,-72.33286706,-6.183,0.002,13.851,98.957,20.3,1,1,1
169.724,170.605,178.129,108.875,1.656,46.75235409,-72.33287396,-6.187,-0.008,13.871,18.514,20.3,1,1,1
170.224,167.512,178.029,111.863,1.656,46.75235409,-72.33288087,-6.184,0.008,13.891,24.851,20.3,1,1,1
170.724,164.421,178.146,113.317,1.655,46.75235409,-72.33288751,-6.182,0.003,13.911,86.551,20.3,1,1,1
171.224,161.329,178.27,114.466,1.655,46.75235409,-72.33289379,-6.184,-0.005,13.931,34.903,20.3,1,1,1
171.724,158.239,178.095,115.95,1.654,46.75235409,-72.3328996,-6.177,0.014,13.951,21.148,20.3,1,1,1
172.224,155.149,178.159,114.303,1.654,46.75235409,-72.33290496,-6.184,-0.014,13.971,19.254,20.3,1,1,1
172.724,152.058,178.37,113.077,1.653,46.75235408,-72.3329103,-6.179,0.011,13.992,93.498,20.3,1,1,1
173.224,148.969,178.496,111.351,1.653,46.75235408,-72.3329159,-6.178,9.372e-05,14.012,33.018,20.3,1,1,1
173.724,145.88,178.309,111.518,1.653,46.75235408,-72.33292211,-6.177,0.002,14.032,37.279,20.3,1,1,1
174.224,142.791,178.243,111.415,1.652,46.75235408,-72.33292842,-6.178,-0.0005154,14.052,75.192,20.3,1,1,1
174.724,139.702,178.418,112.346,1.652,46.75235408,-72.33293471,-6.176,0.003,14.072,28.592,20.3,1,1,1
175.224,136.614,178.452,110.928,1.652,46.75235408,-72.33294127,-6.176,0.001,14.092,13.33,20.3,1,1,1
175.724,133.527,178.521,110.125,1.651,46.75235408,-72.33294779,-6.174,0.003,14.112,79.206,20.3,1,1,1
176.224,130.44,178.63,112.282,1.651,46.75235408,-72.33295436,-6.173,0.002,14.132,61.994,20.3,1,1,1
176.724,127.353,178.735,111.474,1.651,46.75235408,-72.3329611,-6.173,-0.0005046,14.152,27.613,20.3,1,1,1
177.224,124.267,178.903,113.774,1.65,46.75235408,-72.33296763,-6.171,0.004,14.172,73.259,20.3,1,1,1
177.724,121.181,179.099,114.707,1.65,46.75235408,-72.33297391,-6.172,-0.0001907,14.192,95.037,20.3,1,1,1
178.224,118.097,178.974,116.071,1.65,46.75235408,-72.33298059,-6.165,0.013,14.212,79.05,20.3,1,1,1
178.724,115.014,179.081,114.819,1.649,46.75235408,-72.33298738,-6.169,-0.008,14.232,26.392,20.3,1,1,1
179.224,111.929,178.931,114.636,1.649,46.75235408,-72.33299387,-6.168,0.002,14.252,69.904,20.3,1,1,1
179.724,108.846,179.157,117.035,1.649,46.75235408,-72.3330008,-6.165,0.007,14.272,1.945,20.3,1,1,1
180.224,105.764,179.26,115.876,1.648,46.75235408,-72.3330076,-6.163,0.003,14.293,99.951,20.3,1,1,1
180.724,102.681,179.214,117.859,1.648,46.75235408,-72.3330138,-6.168,-0.009,14.313,88.725,20.3,1,1,1
181.224,99.598,179.451,116.891,1.648,46.75235408,-72.33301997,-6.164,0.008,14.333,3.048,20.3,1,1,1
181.724,96.516,179.204,116.979,1.647,46.75235408,-72.33302639,-6.164,-0.001,14.353,62.255,20.3,1,1,1
182.224,93.434,179.159,118.767,1.647,46.75235408,-72.33303267,-6.162,0.006,14.373,73.346,20.3,1,1,1
182.724,90.353,179.257,118.514,1.647,46.75235408,-72.33303867,-6.163,-0.003,14.393,8.282,20.3,1,1,1
183.224,87.273,179.506,119.217,1.646,46.75235408,-72.33304487,-6.16,0.007,14.413,16.107,20.3,1,1,1
183.724,84.192,179.466,121.798,1.645,46.75235408,-72.33305122,-6.161,-0.003,14.433,30.208,20.3,1,1,1
184.224,81.112,179.646,122.796,1.645,46.75235408,-72.33305733,-6.159,0.005,14.453,96.163,20.3,1,1,1
184.724,78.033,179.545,124.806,1.644,46.75235408,-72.33306338,-6.159,-0.0008275,14.473,31.561,20.3,1,1,1
185.224,74.954,179.709,126.112,1.644,46.75235408,-72.33306927,-6.157,0.005,14.493,66.205,20.3,1,1,1
185.724,71.876,179.771,124.48,1.643,46.75235408,-72.33307542,-6.153,0.007,14.513,90.206,20.3,1,1,1
186.224,68.799,179.705,124.634,1.643,46.75235408,-72.33308217,-6.158,-0.011,14.533,33.514,20.3,1,1,1
186.724,65.721,179.838,125.61,1.642,46.75235408,-72.33308943,-6.151,0.014,14.553,26.071,20.3,1,1,1
187.224,62.645,179.876,127.253,1.642,46.75235408,-72.33309688,-6.156,-0.01,14.573,68.99,20.3,1,1,1
187.724,59.569,179.784,126.233,1.642,46.75235408,-72.33310361,-6.147,0.018,14.593,8.044,20.3,1,1,1
188.224,56.493,179.814,124.991,1.642,46.75235408,-72.33310967,-6.156,-0.018,14.613,80.311,20.3,1,1,1
188.724,53.417,179.897,123.988,1.641,46.75235407,-72.33311576,-6.149,0.014,14.633,14.264,20.3,1,1,1
189.224,50.342,180.014,126.549,1.641,46.75235407,-72.33312207,-6.152,-0.006,14.653,56.911,20.3,1,1,1
189.724,47.266,180.182,126.19,1.64,46.75235407,-72.33312839,-6.149,0.007,14.673,34.168,20.3,1,1,1
190.224,44.192,180.126,128.556,1.64,46.75235407,-72.33313439,-6.148,0.002,14.693,11.23,20.3,1,1,1
190.724,41.118,180.196,130.048,1.64,46.75235407,-72.33313979,-6.147,0.002,14.713,37.294,20.3,1,1,1
191.224,38.046,180.267,130.83,1.64,46.75235407,-72.33314543,-6.142,0.01,14.733,50.712,20.3,1,1,1
191.724,34.973,180.127,132.527,1.64,46.75235407,-72.33315166,-6.149,-0.015,14.753,47.716,20.3,1,1,1
192.224,31.904,179.915,131.836,1.639,46.75235407,-72.33315878,-6.129,0.041,14.773,56.318,20.3,1,1,1
193.201,25.904,179.824,136.262,1.639,46.75235407,-72.33317308,-6.137,0.029,14.812,89.095,20.3,1,1,1
193.701,22.833,179.718,139.175,1.639,46.75235407,-72.33317983,-6.146,-0.019,14.832,32.198,20.3,1,1,1
194.201,19.762,179.567,137.733,1.638,46.75235407,-72.33318681,-6.14,0.013,14.852,25.672,20.3,1,1,1
194.701,16.691,179.442,139.813,1.638,46.75235407,-72.33319366,-6.142,-0.004,14.872,85.623,20.3,1,1,1
195.201,13.621,179.494,141.634,1.637,46.75235407,-72.33320035,-6.14,0.004,14.892,40.982,20.3,1,1,1
195.701,10.551,179.389,143.318,1.637,46.75235407,-72.33320687,-6.139,0.002,14.911,47.795,20.3,1,1,1
196.201,7.482,179.487,142.688,1.636,46.75235407,-72.33321296,-6.138,0.002,14.931,70.445,20.3,1,1,1
196.701,4.414,179.599,144.155,1.636,46.75235407,-72.33321905,-6.137,0.002,14.951,27.565,20.3,1,1,1
197.201,1.345,179.796,145.229,1.636,46.75235407,-72.3332253,-6.137,-0.0002216,14.971,63.956,20.3,1,1,1
