time,altitude,pitch,roll,yaw,lat,lon,speed,acceleration,temperature,vibrations,landing_force,batt_check,igniter_check,gps_check
0,0,0,0,0,46.752349,-72.337684,0,0,0,0,0,1,0,0
1,0,0,0,0,46.752349,-72.337684,0,0,0,0,0,1,0,0
2,0,0,0,0,46.752349,-72.337684,0,0,0,0,0,1,0,0
3,0,0,0,0,46.752349,-72.337684,0,0,0,0,0,1,1,0
4,0,0,0,0,46.752349,-72.337684,0,0,0,0,0,1,1,0
5,0,0,0,0,46.752349,-72.337684,0,0,0,0,0,1,1,0
6,0,0,0,0,46.752349,-72.337684,0,0,0,0,0,1,1,1
7,0,0,0,0,46.752349,-72.337684,0,0,0,0,0,1,1,1
8,0,0,0,0,46.752349,-72.337684,0,0,0,0,0,1,1,1
9,0,0,0,0,46.752349,-72.337684,0,0,0,0,0,1,1,1
10.01,0.001,0.0,0.0,0.0,46.752349,-72.337684,0.29,28.988,15.0,88.161,20.3,1,1,1
10.521,18.693,3.232,0.565,0.042,46.752349,-72.33766615,74.344,152.963,14.878,93.335,20.3,1,1,1
11.021,75.679,2.889,4.784,0.187,46.752349,-72.33760713,154.789,167.912,14.508,0.599,20.3,1,1,1
11.521,174.189,3.604,2.392,1.153,46.75234901,-72.33749562,238.525,162.352,13.868,15.688,20.3,1,1,1
12.021,312.751,2.706,-20.718,-16.979,46.75234903,-72.33733293,313.449,136.338,12.967,31.623,20.3,1,1,1
12.521,485.058,2.072,-41.043,-19.304,46.75234905,-72.33712587,373.162,106.381,11.847,12.303,20.3,1,1,1
13.06,695.573,2.078,-63.545,14.7,46.7523491,-72.33686854,384.67,-75.736,10.479,84.869,20.3,1,1,1
13.56,878.877,1.869,-67.059,15.382,46.75234914,-72.33664193,349.529,-63.968,9.287,43.59,20.3,1,1,1
14.11,1062.223,2.043,-66.798,22.292,46.75234921,-72.33641252,318.433,-50.567,8.096,72.374,20.3,1,1,1
14.61,1215.453,2.158,-70.301,29.696,46.75234927,-72.33621817,295.098,-43.161,7.1,40.586,20.3,1,1,1
15.11,1357.856,1.88,-76.304,37.171,46.75234932,-72.33603497,274.977,-37.574,6.174,92.622,20.3,1,1,1
15.61,1490.838,2.08,-71.043,36.896,46.75234939,-72.3358612,257.308,-33.291,5.31,40.421,20.3,1,1,1
16.11,1615.481,1.883,-69.128,32.071,46.75234945,-72.33569558,241.546,-29.881,4.499,43.276,20.3,1,1,1
16.61,1732.64,1.886,-73.891,31.64,46.75234952,-72.3355371,227.323,-27.121,3.738,30.444,20.3,1,1,1
17.11,1843.011,1.925,-75.887,32.4,46.75234958,-72.33538489,214.351,-24.848,3.02,79.602,20.3,1,1,1
17.61,1947.167,1.615,-73.606,32.907,46.75234966,-72.33523824,202.429,-22.882,2.343,67.916,20.3,1,1,1
18.11,2045.587,1.289,-71.125,35.965,46.75234974,-72.33509655,191.385,-21.26,1.704,29.337,20.3,1,1,1
18.61,2138.676,1.385,-69.687,50.302,46.75234982,-72.33495933,181.087,-19.904,1.099,81.792,20.3,1,1,1
19.11,2226.78,0.862,-70.563,47.577,46.75234989,-72.33482613,171.425,-18.716,0.526,22.944,20.3,1,1,1
19.61,2310.195,0.714,-70.24,47.163,46.75234998,-72.33469658,162.319,-17.669,-0.016,22.481,20.3,1,1,1
20.11,2389.181,-0.188,-70.699,45.473,46.75235006,-72.3345704,153.696,-16.821,-0.53,57.11,20.3,1,1,1
20.61,2463.966,-1.07,-73.135,38.148,46.75235015,-72.33444722,145.503,-16.037,-1.016,72.152,20.3,1,1,1
21.11,2534.748,-0.894,-73.683,31.163,46.75235024,-72.33432681,137.685,-15.308,-1.476,76.434,20.3,1,1,1
21.61,2601.704,0.076,-73.202,31.938,46.75235033,-72.33420895,130.194,-14.684,-1.911,37.27,20.3,1,1,1
22.11,2664.989,1.983,-73.674,32.303,46.75235042,-72.33409342,123.0,-14.092,-2.322,11.866,20.3,1,1,1
22.61,2724.745,0.805,-71.779,32.43,46.75235052,-72.33398008,116.06,-13.617,-2.711,64.526,20.3,1,1,1
23.11,2781.093,1.643,-73.709,35.603,46.75235062,-72.33386873,109.37,-13.195,-3.077,39.044,20.3,1,1,1
23.61,2834.147,2.358,-72.098,34.058,46.75235072,-72.33375919,102.882,-12.759,-3.422,67.953,20.3,1,1,1
24.11,2884.008,5.155,-69.941,32.308,46.75235083,-72.33365139,96.59,-12.408,-3.746,90.605,20.3,1,1,1
24.61,2930.764,4.115,-68.668,31.541,46.75235092,-72.33354513,90.463,-12.069,-4.05,52.019,20.3,1,1,1
25.11,2974.499,8.039,-67.43,34.872,46.75235103,-72.33344039,84.501,-11.803,-4.334,69.699,20.3,1,1,1
25.61,3015.284,3.965,-65.828,36.097,46.75235114,-72.33333697,78.662,-11.534,-4.599,6.579,20.3,1,1,1
26.11,3053.185,8.296,-64.327,35.287,46.75235126,-72.33323475,72.964,-11.259,-4.846,99.761,20.3,1,1,1
26.61,3088.267,10.961,-62.297,35.472,46.75235137,-72.33313379,67.38,-11.096,-5.074,71.347,20.3,1,1,1
27.11,3120.578,5.389,-61.863,38.342,46.75235149,-72.33303383,61.879,-10.888,-5.284,64.17,20.3,1,1,1
27.61,3150.168,14.973,-60.436,37.273,46.75235161,-72.33293485,56.499,-10.678,-5.476,68.271,20.3,1,1,1
28.11,3177.086,6.941,-59.953,39.403,46.75235172,-72.33283691,51.181,-10.593,-5.651,98.857,20.3,1,1,1
28.61,3201.36,8.772,-58.27,43.533,46.75235185,-72.33273966,45.931,-10.395,-5.809,48.456,20.3,1,1,1
29.11,3223.034,23.858,-57.184,42.033,46.75235198,-72.33264324,40.777,-10.254,-5.95,93.518,20.3,1,1,1
29.61,3242.144,29.971,-54.91,117.299,46.7523521,-72.33254766,35.665,-10.193,-6.074,52.336,20.3,1,1,1
30.11,3258.706,45.213,-53.217,180.279,46.75235224,-72.3324527,30.594,-10.084,-6.182,40.24,20.3,1,1,1
30.61,3272.749,68.539,-51.54,180.312,46.75235237,-72.33235833,25.584,-9.959,-6.273,53.645,20.3,1,1,1
31.11,3284.3,99.127,-50.478,178.732,46.75235251,-72.3322646,20.63,-9.876,-6.348,68.789,20.3,1,1,1
31.61,3293.385,137.721,-49.318,177.212,46.75235264,-72.3321715,15.716,-9.788,-6.407,71.214,20.3,1,1,1
32.11,3300.023,184.569,-47.33,176.582,46.75235279,-72.332079,10.841,-9.708,-6.45,98.31,20.3,1,1,1
32.61,3304.233,239.986,-46.698,177.16,46.75235293,-72.33198704,6.005,-9.641,-6.478,92.657,20.3,1,1,1
33.11,3306.034,303.617,-45.996,178.555,46.75235307,-72.33189557,1.205,-9.568,-6.489,70.567,20.3,1,1,1
33.650999999999996,3305.284,316.13,-46.321,169.601,46.75235323,-72.33179967,-3.983,-9.605,-6.49,0.795,20.3,1,1,1
34.43,3299.555,316.2,-40.288,161.029,46.75235343,-72.33168215,-10.622,-8.259,-6.472,8.498,20.3,1,1,1
35.422,3285.449,315.828,-42.444,158.205,46.75235365,-72.33156255,-17.562,-6.524,-6.407,19.446,20.3,1,1,1
36.402,3265.7,315.798,-38.433,152.072,46.75235382,-72.33147329,-22.493,-4.535,-6.295,22.194,20.3,1,1,1
36.902,3253.996,315.659,-36.448,147.477,46.75235389,-72.33143763,-24.325,-3.665,-6.227,9.433,20.3,1,1,1
37.402,3241.479,315.662,-36.126,143.725,46.75235396,-72.33140778,-25.743,-2.834,-6.151,31.124,20.3,1,1,1
37.902,3228.34,315.459,-37.886,143.615,46.75235402,-72.33138316,-26.814,-2.144,-6.07,57.822,20.3,1,1,1
38.402,3214.733,315.706,-38.469,136.501,46.75235406,-72.33136315,-27.612,-1.595,-5.984,85.175,20.3,1,1,1
38.902,3200.783,315.744,-36.201,132.419,46.75235411,-72.33134715,-28.188,-1.152,-5.896,12.126,20.3,1,1,1
39.402,3186.586,315.904,-34.899,129.5,46.75235414,-72.33133465,-28.602,-0.829,-5.805,62.493,20.3,1,1,1
39.902,3172.211,315.977,-36.614,128.16,46.75235417,-72.33132518,-28.894,-0.584,-5.713,73.103,20.3,1,1,1
40.402,3157.713,316.182,-38.19,122.787,46.7523542,-72.33131828,-29.098,-0.408,-5.619,71.076,20.3,1,1,1
40.902,3143.128,316.376,-38.909,122.212,46.75235423,-72.33131347,-29.241,-0.286,-5.525,21.716,20.3,1,1,1
41.402,3128.485,316.473,-38.585,120.608,46.75235424,-72.33131039,-29.334,-0.185,-5.43,81.137,20.3,1,1,1
41.902,3113.803,316.701,-40.321,119.395,46.75235425,-72.33130885,-29.392,-0.116,-5.335,89.35,20.3,1,1,1
42.402,3099.099,316.945,-38.696,114.856,46.75235427,-72.33130869,-29.426,-0.069,-5.24,93.556,20.3,1,1,1
42.902,3084.381,316.8,-36.954,112.69,46.75235428,-72.33130969,-29.444,-0.036,-5.144,68.425,20.3,1,1,1
43.402,3069.657,316.911,-38.327,109.503,46.75235429,-72.33131172,-29.45,-0.011,-5.048,82.044,20.3,1,1,1
43.902,3054.932,316.832,-38.669,104.521,46.7523543,-72.33131455,-29.45,0.0004254,-4.953,95.322,20.3,1,1,1
44.402,3040.209,316.703,-36.932,102.891,46.75235431,-72.33131803,-29.442,0.016,-4.857,14.574,20.3,1,1,1
44.902,3025.491,316.719,-38.02,100.691,46.75235431,-72.3313221,-29.43,0.023,-4.761,70.084,20.3,1,1,1
45.402,3010.78,316.877,-35.922,100.637,46.75235431,-72.33132663,-29.416,0.028,-4.666,50.403,20.3,1,1,1
45.902,2996.076,316.728,-37.878,95.697,46.75235431,-72.33133146,-29.4,0.033,-4.57,31.921,20.3,1,1,1
46.402,2981.38,316.735,-35.288,95.602,46.75235431,-72.33133657,-29.382,0.036,-4.474,54.082,20.3,1,1,1
46.902,2966.694,316.584,-33.685,94.812,46.75235431,-72.33134188,-29.362,0.039,-4.379,18.815,20.3,1,1,1
47.402,2952.018,316.442,-33.278,93.045,46.75235432,-72.33134732,-29.342,0.041,-4.284,70.083,20.3,1,1,1
47.902,2937.353,316.304,-32.433,92.623,46.75235432,-72.33135291,-29.32,0.043,-4.188,72.73,20.3,1,1,1
48.402,2922.698,316.273,-32.616,88.441,46.75235432,-72.33135855,-29.299,0.043,-4.093,65.921,20.3,1,1,1
48.902,2908.054,316.327,-31.134,87.236,46.75235432,-72.33136413,-29.277,0.044,-3.998,70.579,20.3,1,1,1
49.402,2893.421,316.184,-29.015,83.515,46.75235432,-72.33136968,-29.255,0.044,-3.902,91.476,20.3,1,1,1
49.902,2878.799,316.07,-27.151,80.585,46.75235432,-72.33137536,-29.232,0.045,-3.807,66.053,20.3,1,1,1
50.402,2864.189,315.959,-28.637,79.572,46.75235432,-72.33138134,-29.209,0.046,-3.712,41.801,20.3,1,1,1
50.902,2849.59,315.754,-26.046,77.193,46.75235432,-72.33138761,-29.187,0.044,-3.617,8.587,20.3,1,1,1
51.402,2835.001,315.928,-24.162,74.653,46.75235432,-72.33139404,-29.165,0.044,-3.522,37.151,20.3,1,1,1
51.902,2820.424,316.029,-22.015,70.961,46.75235432,-72.33140051,-29.143,0.044,-3.428,23.788,20.3,1,1,1
52.402,2805.858,315.93,-19.841,69.23,46.75235431,-72.33140698,-29.122,0.044,-3.333,93.5,20.3,1,1,1
52.902,2791.303,315.886,-21.667,66.673,46.75235431,-72.3314135,-29.1,0.044,-3.238,13.315,20.3,1,1,1
53.402,2776.758,315.636,-21.417,66.249,46.75235431,-72.3314201,-29.078,0.044,-3.143,7.032,20.3,1,1,1
53.902,2762.225,315.441,-19.544,63.044,46.75235431,-72.33142666,-29.056,0.044,-3.049,59.693,20.3,1,1,1
54.402,2747.702,315.54,-21.153,60.835,46.75235431,-72.33143312,-29.034,0.043,-2.954,36.704,20.3,1,1,1
54.902,2733.19,315.757,-19.619,58.484,46.75235431,-72.33143955,-29.013,0.043,-2.86,33.556,20.3,1,1,1
55.402,2718.69,315.768,-21.122,55.614,46.75235431,-72.33144603,-28.991,0.043,-2.766,18.383,20.3,1,1,1
55.902,2704.199,315.844,-18.299,53.389,46.75235431,-72.33145254,-28.97,0.043,-2.671,90.16,20.3,1,1,1
56.402,2689.72,315.86,-15.806,52.953,46.75235431,-72.33145903,-28.948,0.043,-2.577,55.15,20.3,1,1,1
56.902,2675.251,315.71,-14.801,51.966,46.75235431,-72.33146558,-28.927,0.043,-2.483,9.683,20.3,1,1,1
57.402,2660.793,315.842,-13.148,51.844,46.75235431,-72.33147213,-28.905,0.043,-2.389,20.937,20.3,1,1,1
57.902,2646.346,315.692,-14.999,51.329,46.75235431,-72.33147861,-28.884,0.042,-2.295,64.098,20.3,1,1,1
58.402,2631.909,315.68,-13.224,51.325,46.75235431,-72.33148501,-28.863,0.042,-2.201,95.622,20.3,1,1,1
58.902,2617.483,315.682,-10.237,49.248,46.75235431,-72.33149143,-28.842,0.042,-2.107,55.161,20.3,1,1,1
59.402,2603.067,315.551,-8.104,48.46,46.75235431,-72.33149797,-28.821,0.042,-2.014,87.049,20.3,1,1,1
59.902,2588.662,315.728,-8.584,46.509,46.75235431,-72.33150446,-28.8,0.042,-1.92,16.802,20.3,1,1,1
60.402,2574.267,315.579,-10.451,45.425,46.7523543,-72.3315108,-28.779,0.042,-1.826,46.571,20.3,1,1,1
60.902,2559.883,315.46,-8.741,44.181,46.7523543,-72.33151694,-28.758,0.042,-1.733,3.13,20.3,1,1,1
61.402,2545.509,315.695,-9.343,42.678,46.7523543,-72.33152298,-28.738,0.041,-1.639,97.39,20.3,1,1,1
61.902,2531.145,315.851,-8.577,40.864,46.7523543,-72.33152905,-28.717,0.041,-1.546,56.232,20.3,1,1,1
62.402,2516.792,315.873,-8.057,40.232,46.7523543,-72.33153513,-28.697,0.041,-1.452,3.735,20.3,1,1,1
62.902,2502.449,315.909,-9.199,39.528,46.7523543,-72.33154121,-28.676,0.041,-1.359,74.324,20.3,1,1,1
63.402,2488.116,316.059,-10.15,38.742,46.7523543,-72.33154722,-28.656,0.041,-1.266,9.234,20.3,1,1,1
63.902,2473.793,316.257,-7.506,37.308,46.75235429,-72.33155309,-28.635,0.041,-1.173,28.723,20.3,1,1,1
64.402,2459.481,316.269,-7.946,35.533,46.75235429,-72.33155898,-28.614,0.042,-1.08,53.259,20.3,1,1,1
64.902,2445.179,316.046,-6.332,34.361,46.75235429,-72.33156497,-28.593,0.042,-0.987,24.289,20.3,1,1,1
65.402,2430.888,315.959,-4.357,34.287,46.75235429,-72.33157101,-28.572,0.042,-0.894,20.11,20.3,1,1,1
65.902,2416.607,316.079,-4.774,33.901,46.75235429,-72.33157718,-28.551,0.043,-0.801,66.87,20.3,1,1,1
66.402,2402.337,315.901,-2.373,32.681,46.75235429,-72.33158352,-28.53,0.042,-0.708,31.353,20.3,1,1,1
66.902,2388.077,315.785,-0.508,32.221,46.75235429,-72.33158994,-28.509,0.042,-0.615,97.565,20.3,1,1,1
67.402,2373.828,315.698,-0.819,31.097,46.75235428,-72.33159635,-28.488,0.042,-0.523,57.058,20.3,1,1,1
67.902,2359.59,315.545,-2.383,30.006,46.75235428,-72.33160281,-28.467,0.042,-0.43,47.121,20.3,1,1,1
68.402,2345.362,315.398,-1.762,29.159,46.75235428,-72.33160934,-28.446,0.042,-0.337,67.534,20.3,1,1,1
68.902,2331.144,315.496,-2.551,28.386,46.75235428,-72.33161589,-28.425,0.042,-0.245,67.967,20.3,1,1,1
69.402,2316.937,315.25,-0.324,27.88,46.75235428,-72.33162244,-28.404,0.042,-0.152,59.914,20.3,1,1,1
69.902,2302.74,315.059,-1.682,27.346,46.75235428,-72.33162904,-28.383,0.041,-0.06,61.065,20.3,1,1,1
70.402,2288.553,315.067,-3.214,26.557,46.75235428,-72.33163567,-28.363,0.041,0.032,6.805,20.3,1,1,1
70.902,2274.377,314.894,-2.022,26.421,46.75235427,-72.33164226,-28.342,0.041,0.124,19.96,20.3,1,1,1
71.402,2260.211,315.042,-1.513,25.585,46.75235427,-72.33164875,-28.322,0.041,0.217,13.838,20.3,1,1,1
71.902,2246.055,314.81,-1.232,25.278,46.75235427,-72.33165509,-28.301,0.041,0.309,71.705,20.3,1,1,1
72.402,2231.91,314.786,-1.88,24.137,46.75235427,-72.33166132,-28.281,0.041,0.401,8.389,20.3,1,1,1
72.902,2217.775,314.905,-3.825,23.042,46.75235427,-72.33166748,-28.261,0.04,0.493,17.046,20.3,1,1,1
73.402,2203.649,314.697,-2.204,23.027,46.75235427,-72.33167369,-28.24,0.041,0.584,44.942,20.3,1,1,1
73.902,2189.534,314.639,-0.231,22.72,46.75235427,-72.33167992,-28.22,0.04,0.676,49.931,20.3,1,1,1
74.402,2175.429,314.604,0.706,22.393,46.75235426,-72.33168596,-28.2,0.041,0.768,72.203,20.3,1,1,1
74.902,2161.334,314.487,3.599,21.569,46.75235426,-72.33169176,-28.18,0.04,0.86,49.101,20.3,1,1,1
75.402,2147.249,314.526,4.98,21.137,46.75235426,-72.33169754,-28.16,0.04,0.951,98.361,20.3,1,1,1
75.902,2133.174,314.62,3.813,20.497,46.75235426,-72.33170333,-28.14,0.039,1.043,86.517,20.3,1,1,1
76.402,2119.109,314.801,3.261,20.106,46.75235426,-72.33170914,-28.121,0.039,1.134,93.525,20.3,1,1,1
76.902,2105.053,315.017,2.063,19.105,46.75235426,-72.33171497,-28.101,0.039,1.226,37.658,20.3,1,1,1
77.402,2091.008,315.062,3.588,19.07,46.75235426,-72.33172079,-28.081,0.039,1.317,90.508,20.3,1,1,1
77.902,2076.972,315.299,2.765,18.977,46.75235425,-72.33172657,-28.062,0.039,1.408,49.463,20.3,1,1,1
78.402,2062.946,315.175,5.555,18.901,46.75235425,-72.33173225,-28.042,0.039,1.5,2.595,20.3,1,1,1
78.902,2048.929,315.399,7.866,18.252,46.75235425,-72.33173795,-28.023,0.039,1.591,82.273,20.3,1,1,1
79.402,2034.923,315.149,7.183,18.011,46.75235425,-72.33174376,-28.003,0.039,1.682,41.573,20.3,1,1,1
79.902,2020.926,315.263,6.676,17.524,46.75235425,-72.33174967,-27.984,0.038,1.773,59.669,20.3,1,1,1
80.402,2006.939,315.489,5.1,17.301,46.75235425,-72.33175574,-27.965,0.039,1.864,46.871,20.3,1,1,1
80.902,1992.961,315.64,7.322,16.553,46.75235425,-72.33176208,-27.945,0.039,1.955,24.375,20.3,1,1,1
81.402,1978.993,315.555,8.83,16.087,46.75235425,-72.33176851,-27.926,0.038,2.046,95.07,20.3,1,1,1
81.902,1965.035,315.489,8.24,15.315,46.75235424,-72.33177488,-27.907,0.039,2.137,86.411,20.3,1,1,1
82.402,1951.087,315.433,10.755,14.828,46.75235424,-72.33178123,-27.887,0.039,2.227,34.213,20.3,1,1,1
82.902,1937.148,315.461,12.742,14.794,46.75235424,-72.33178759,-27.867,0.04,2.318,19.755,20.3,1,1,1
83.402,1923.219,315.406,12.156,14.46,46.75235424,-72.33179389,-27.847,0.04,2.409,43.143,20.3,1,1,1
83.902,1909.3,315.606,14.597,14.399,46.75235424,-72.33180012,-27.828,0.04,2.499,75.999,20.3,1,1,1
84.402,1895.392,315.41,13.93,14.207,46.75235424,-72.33180629,-27.808,0.04,2.59,8.315,20.3,1,1,1
84.902,1881.493,315.311,15.225,13.713,46.75235424,-72.3318125,-27.788,0.04,2.68,25.776,20.3,1,1,1
85.402,1867.604,315.237,15.035,13.579,46.75235423,-72.33181871,-27.768,0.039,2.77,94.039,20.3,1,1,1
85.902,1853.724,315.303,13.968,13.333,46.75235423,-72.33182498,-27.749,0.04,2.861,99.012,20.3,1,1,1
86.402,1839.855,315.075,12.292,13.254,46.75235423,-72.33183127,-27.729,0.039,2.951,8.885,20.3,1,1,1
86.902,1825.995,314.846,15.165,12.85,46.75235423,-72.3318375,-27.709,0.039,3.041,94.774,20.3,1,1,1
87.402,1812.146,314.664,13.385,12.396,46.75235423,-72.33184377,-27.69,0.039,3.131,18.898,20.3,1,1,1
87.902,1798.306,314.45,15.476,11.905,46.75235423,-72.33184995,-27.67,0.039,3.221,38.667,20.3,1,1,1
88.402,1784.475,314.694,18.466,11.798,46.75235423,-72.331856,-27.651,0.039,3.311,25.132,20.3,1,1,1
88.902,1770.654,314.829,19.365,11.456,46.75235423,-72.33186211,-27.632,0.039,3.401,58.559,20.3,1,1,1
89.402,1756.843,314.805,18.196,11.276,46.75235423,-72.33186828,-27.613,0.038,3.491,62.899,20.3,1,1,1
89.902,1743.042,314.784,19.348,10.945,46.75235423,-72.33187455,-27.593,0.039,3.581,78.905,20.3,1,1,1
90.402,1729.25,314.55,19.499,10.854,46.75235423,-72.33188105,-27.574,0.038,3.67,52.467,20.3,1,1,1
90.902,1715.468,314.309,20.454,10.689,46.75235423,-72.33188758,-27.555,0.038,3.76,72.512,20.3,1,1,1
91.402,1701.695,314.406,18.723,10.299,46.75235423,-72.33189403,-27.536,0.038,3.849,97.949,20.3,1,1,1
91.902,1687.932,314.647,18.745,10.237,46.75235423,-72.3319004,-27.517,0.038,3.939,80.259,20.3,1,1,1
92.402,1674.178,314.758,18.56,9.846,46.75235423,-72.33190671,-27.499,0.037,4.028,40.917,20.3,1,1,1
92.902,1660.433,314.867,17.436,9.569,46.75235422,-72.33191304,-27.48,0.037,4.118,96.381,20.3,1,1,1
93.402,1646.698,314.771,19.921,9.298,46.75235422,-72.33191931,-27.461,0.037,4.207,8.377,20.3,1,1,1
93.902,1632.972,314.573,18.034,8.837,46.75235422,-72.33192545,-27.443,0.037,4.296,9.043,20.3,1,1,1
94.402,1619.255,314.324,16.777,8.528,46.75235422,-72.33193153,-27.424,0.037,4.386,81.166,20.3,1,1,1
94.902,1605.548,314.135,14.831,8.438,46.75235422,-72.33193756,-27.406,0.037,4.475,85.498,20.3,1,1,1
95.402,1591.85,314.265,16.717,8.298,46.75235422,-72.33194349,-27.387,0.037,4.564,12.442,20.3,1,1,1
95.902,1578.161,314.33,18.921,8.142,46.75235422,-72.33194927,-27.369,0.037,4.653,75.416,20.3,1,1,1
96.402,1564.481,314.331,18.722,8.094,46.75235421,-72.33195502,-27.35,0.037,4.742,37.595,20.3,1,1,1
96.902,1550.81,314.396,18.555,7.881,46.75235421,-72.33196086,-27.332,0.037,4.831,54.487,20.3,1,1,1
97.402,1537.149,314.44,20.689,7.525,46.75235421,-72.33196681,-27.314,0.036,4.92,20.969,20.3,1,1,1
97.902,1523.497,314.579,20.68,7.157,46.75235421,-72.33197282,-27.296,0.036,5.009,86.315,20.3,1,1,1
98.402,1509.853,314.463,20.81,6.845,46.75235421,-72.33197887,-27.278,0.036,5.097,2.342,20.3,1,1,1
98.902,1496.219,314.697,20.231,6.845,46.75235421,-72.33198495,-27.26,0.036,5.186,80.28,20.3,1,1,1
99.402,1482.594,314.697,19.725,6.798,46.75235421,-72.33199119,-27.241,0.037,5.275,18.982,20.3,1,1,1
99.902,1468.978,314.497,22.716,6.777,46.75235421,-72.3319976,-27.223,0.037,5.363,13.234,20.3,1,1,1
100.402,1455.371,314.615,22.784,6.632,46.7523542,-72.33200402,-27.204,0.037,5.452,88.767,20.3,1,1,1
100.902,1441.773,314.794,24.026,6.334,46.7523542,-72.33201035,-27.186,0.037,5.54,90.91,20.3,1,1,1
101.402,1428.185,314.693,25.463,6.136,46.7523542,-72.33201653,-27.167,0.037,5.628,39.928,20.3,1,1,1
101.902,1414.606,314.452,23.852,6.093,46.7523542,-72.33202258,-27.148,0.037,5.717,28.475,20.3,1,1,1
102.402,1401.037,314.488,25.941,5.881,46.7523542,-72.33202873,-27.13,0.038,5.805,60.275,20.3,1,1,1
102.902,1387.477,314.536,25.936,5.722,46.7523542,-72.33203498,-27.111,0.037,5.893,1.812,20.3,1,1,1
103.402,1373.926,314.551,26.737,5.483,46.7523542,-72.33204118,-27.093,0.037,5.981,68.526,20.3,1,1,1
103.902,1360.384,314.391,26.073,5.465,46.75235419,-72.33204732,-27.074,0.037,6.069,15.471,20.3,1,1,1
104.402,1346.852,314.215,24.223,5.28,46.75235419,-72.33205344,-27.056,0.037,6.158,86.095,20.3,1,1,1
104.902,1333.328,314.41,24.031,5.255,46.75235419,-72.33205955,-27.037,0.037,6.245,21.466,20.3,1,1,1
105.402,1319.814,314.631,22.124,5.067,46.75235419,-72.3320657,-27.019,0.037,6.333,64.042,20.3,1,1,1
105.902,1306.309,314.803,24.753,4.959,46.75235419,-72.33207186,-27.001,0.037,6.421,52.955,20.3,1,1,1
106.402,1292.813,315.018,24.792,4.839,46.75235419,-72.33207796,-26.982,0.037,6.509,12.172,20.3,1,1,1
106.902,1279.327,315.067,26.112,4.625,46.75235419,-72.33208401,-26.964,0.036,6.597,43.265,20.3,1,1,1
107.402,1265.849,315.093,27.895,4.574,46.75235419,-72.33209009,-26.946,0.036,6.684,13.267,20.3,1,1,1
107.902,1252.38,315.129,27.616,4.468,46.75235418,-72.3320961,-26.928,0.037,6.772,73.688,20.3,1,1,1
108.402,1238.921,315.367,28.794,4.435,46.75235418,-72.33210196,-26.91,0.036,6.86,84.936,20.3,1,1,1
108.902,1225.47,315.397,29.745,4.396,46.75235418,-72.33210775,-26.892,0.036,6.947,5.255,20.3,1,1,1
109.402,1212.029,315.253,28.755,4.326,46.75235418,-72.33211354,-26.874,0.036,7.034,16.584,20.3,1,1,1
109.902,1198.596,315.423,26.799,4.194,46.75235418,-72.33211944,-26.856,0.036,7.122,2.53,20.3,1,1,1
110.402,1185.172,315.502,26.175,4.039,46.75235418,-72.33212549,-26.839,0.036,7.209,86.173,20.3,1,1,1
110.902,1171.757,315.407,26.857,3.985,46.75235418,-72.3321317,-26.821,0.035,7.296,70.983,20.3,1,1,1
111.402,1158.351,315.301,27.535,3.889,46.75235418,-72.33213805,-26.803,0.035,7.384,97.446,20.3,1,1,1
111.902,1144.954,315.311,27.955,3.716,46.75235417,-72.33214447,-26.786,0.035,7.471,74.727,20.3,1,1,1
112.402,1131.566,315.198,26.261,3.602,46.75235417,-72.33215088,-26.768,0.035,7.558,13.207,20.3,1,1,1
112.902,1118.186,315.421,26.099,3.571,46.75235417,-72.33215736,-26.751,0.035,7.645,87.945,20.3,1,1,1
113.402,1104.815,315.271,27.414,3.398,46.75235417,-72.3321639,-26.734,0.035,7.732,60.943,20.3,1,1,1
113.902,1091.452,315.234,28.701,3.258,46.75235417,-72.33217054,-26.716,0.035,7.819,46.603,20.3,1,1,1
114.402,1078.099,315.412,27.873,3.098,46.75235417,-72.33217723,-26.699,0.034,7.906,35.631,20.3,1,1,1
114.902,1064.753,315.405,26.197,3.031,46.75235417,-72.33218397,-26.682,0.035,7.992,22.605,20.3,1,1,1
115.402,1051.417,315.172,27.565,2.999,46.75235416,-72.33219076,-26.664,0.034,8.079,49.61,20.3,1,1,1
115.902,1038.089,315.201,27.466,2.939,46.75235416,-72.33219757,-26.647,0.034,8.166,61.103,20.3,1,1,1
116.402,1024.77,315.332,27.613,2.917,46.75235416,-72.33220434,-26.63,0.034,8.252,70.219,20.3,1,1,1
116.902,1011.459,315.235,28.967,2.85,46.75235416,-72.33221096,-26.613,0.034,8.339,87.038,20.3,1,1,1
117.402,998.156,315.218,29.11,2.771,46.75235416,-72.33221746,-26.596,0.034,8.426,59.778,20.3,1,1,1
117.902,984.863,315.44,30.507,2.688,46.75235416,-72.3322239,-26.579,0.034,8.512,1.131,20.3,1,1,1
118.402,971.577,315.444,33.129,2.621,46.75235416,-72.33223032,-26.562,0.034,8.598,65.52,20.3,1,1,1
118.902,958.301,315.448,34.186,2.597,46.75235415,-72.33223676,-26.545,0.035,8.685,49.319,20.3,1,1,1
119.402,945.033,315.235,36.58,2.518,46.75235415,-72.3322432,-26.527,0.035,8.771,69.956,20.3,1,1,1
119.902,931.773,315.17,38.373,2.423,46.75235415,-72.3322497,-26.509,0.035,8.857,52.227,20.3,1,1,1
120.402,918.523,315.19,40.285,2.421,46.75235415,-72.33225632,-26.492,0.035,8.943,84.998,20.3,1,1,1
120.902,905.282,315.016,40.388,2.356,46.75235415,-72.33226304,-26.474,0.035,9.03,8.529,20.3,1,1,1
121.402,892.049,315.043,43.174,2.304,46.75235415,-72.33226981,-26.457,0.035,9.116,10.274,20.3,1,1,1
121.902,878.825,315.272,41.294,2.269,46.75235415,-72.3322765,-26.439,0.035,9.202,39.338,20.3,1,1,1
122.402,865.61,315.07,43.153,2.265,46.75235415,-72.33228303,-26.422,0.035,9.288,77.371,20.3,1,1,1
122.902,852.403,315.162,45.203,2.237,46.75235414,-72.33228934,-26.404,0.035,9.374,77.735,20.3,1,1,1
123.402,839.205,314.938,45.422,2.136,46.75235414,-72.33229545,-26.387,0.034,9.459,42.944,20.3,1,1,1
123.902,826.016,314.963,48.284,2.092,46.75235414,-72.33230156,-26.37,0.034,9.545,78.693,20.3,1,1,1
124.402,812.836,315.204,49.56,1.989,46.75235414,-72.33230776,-26.353,0.034,9.631,45.346,20.3,1,1,1
124.902,799.664,315.313,49.809,1.985,46.75235414,-72.332314,-26.335,0.034,9.717,9.276,20.3,1,1,1
125.402,786.5,315.493,51.329,1.98,46.75235414,-72.33232019,-26.318,0.034,9.802,67.887,20.3,1,1,1
125.902,773.345,315.315,53.347,1.947,46.75235414,-72.33232631,-26.301,0.034,9.888,46.154,20.3,1,1,1
126.402,760.199,315.084,53.009,1.903,46.75235414,-72.33233242,-26.284,0.034,9.973,35.261,20.3,1,1,1
126.902,747.061,315.137,51.586,1.865,46.75235414,-72.33233855,-26.267,0.034,10.059,11.881,20.3,1,1,1
127.402,733.931,314.916,51.508,1.798,46.75235414,-72.33234471,-26.25,0.034,10.144,26.721,20.3,1,1,1
127.902,720.81,315.018,54.448,1.767,46.75235414,-72.3323509,-26.234,0.034,10.229,76.352,20.3,1,1,1
128.902,694.594,314.947,54.587,1.563,46.75235414,-72.33236349,-26.2,0.033,10.4,29.757,20.3,1,1,1
129.402,681.498,315.126,53.864,1.56,46.75235414,-72.33236972,-26.183,0.033,10.485,32.239,20.3,1,1,1
129.902,668.41,314.985,53.614,1.487,46.75235414,-72.33237582,-26.167,0.033,10.57,20.756,20.3,1,1,1
130.402,655.331,314.786,54.009,1.414,46.75235413,-72.3323817,-26.15,0.034,10.655,78.779,20.3,1,1,1
130.902,642.26,314.555,54.723,1.375,46.75235413,-72.33238747,-26.134,0.033,10.74,58.792,20.3,1,1,1
131.402,629.197,314.574,56.907,1.321,46.75235413,-72.33239326,-26.117,0.033,10.825,48.761,20.3,1,1,1
131.902,616.143,314.458,59.147,1.273,46.75235413,-72.33239902,-26.101,0.033,10.91,73.177,20.3,1,1,1
132.402,603.097,314.517,57.682,1.236,46.75235413,-72.33240486,-26.084,0.033,10.995,58.377,20.3,1,1,1
132.902,590.059,314.352,59.224,1.207,46.75235413,-72.33241088,-26.068,0.033,11.08,70.012,20.3,1,1,1
133.402,577.029,314.318,61.909,1.157,46.75235413,-72.33241705,-26.052,0.032,11.165,50.435,20.3,1,1,1
133.902,564.007,314.197,62.734,1.134,46.75235413,-72.33242327,-26.036,0.032,11.249,33.707,20.3,1,1,1
134.402,550.993,314.004,64.511,1.101,46.75235412,-72.33242949,-26.019,0.032,11.334,5.192,20.3,1,1,1
134.902,537.987,313.887,65.758,1.093,46.75235412,-72.3324357,-26.003,0.032,11.419,45.146,20.3,1,1,1
135.402,524.99,313.737,65.337,1.088,46.75235412,-72.33244202,-25.987,0.032,11.503,47.058,20.3,1,1,1
135.902,512.0,313.873,64.113,1.04,46.75235412,-72.33244828,-25.971,0.032,11.588,48.286,20.3,1,1,1
136.402,499.019,313.63,65.212,1.033,46.75235412,-72.33245442,-25.955,0.032,11.672,99.351,20.3,1,1,1
136.902,486.045,313.785,67.076,1.006,46.75235412,-72.3324605,-25.939,0.032,11.756,6.685,20.3,1,1,1
137.402,473.079,313.65,65.751,0.993,46.75235412,-72.33246655,-25.923,0.032,11.841,4.382,20.3,1,1,1
137.902,460.122,313.658,65.235,0.984,46.75235412,-72.33247259,-25.907,0.033,11.925,73.535,20.3,1,1,1
138.402,447.173,313.875,66.389,0.984,46.75235411,-72.33247869,-25.89,0.033,12.009,4.835,20.3,1,1,1
138.902,434.232,313.872,69.289,0.959,46.75235411,-72.33248482,-25.874,0.033,12.093,48.421,20.3,1,1,1
139.402,421.299,313.674,69.132,0.945,46.75235411,-72.33249095,-25.857,0.033,12.177,17.461,20.3,1,1,1
139.902,408.375,313.869,70.279,0.908,46.75235411,-72.33249714,-25.841,0.033,12.262,30.791,20.3,1,1,1
140.402,395.458,313.831,68.291,0.904,46.75235411,-72.33250331,-25.824,0.033,12.346,26.628,20.3,1,1,1
140.902,382.551,313.97,70.324,0.87,46.75235411,-72.33250938,-25.808,0.033,12.43,0.972,20.3,1,1,1
141.402,369.651,313.87,71.962,0.85,46.75235411,-72.33251537,-25.791,0.033,12.513,36.686,20.3,1,1,1
141.902,356.759,314.022,74.823,0.844,46.75235411,-72.33252141,-25.775,0.033,12.597,74.77,20.3,1,1,1
142.402,343.876,314.18,74.305,0.841,46.7523541,-72.33252756,-25.758,0.032,12.681,41.348,20.3,1,1,1
142.916,337.479,313.757,96.784,0.368,46.7523541,-72.33253408,-7.874,6.686,12.805,47.996,20.3,1,1,1
143.469,333.655,313.484,99.49,0.342,46.7523541,-72.33254118,-6.405,1.141,12.824,44.892,20.3,1,1,1
144.224,328.914,313.367,98.475,0.335,46.7523541,-72.33255134,-6.214,0.102,12.842,24.329,20.3,1,1,1
144.724,325.8,313.573,96.715,0.322,46.7523541,-72.33255829,-6.243,-0.057,12.862,0.173,20.3,1,1,1
145.224,322.683,313.341,98.181,0.322,46.7523541,-72.33256491,-6.224,0.038,12.882,54.987,20.3,1,1,1
145.724,319.569,313.201,99.623,0.314,46.7523541,-72.33257121,-6.234,-0.021,12.903,79.004,20.3,1,1,1
146.224,316.454,313.404,97.67,0.31,46.7523541,-72.33257727,-6.226,0.016,12.923,19.522,20.3,1,1,1
146.724,313.34,313.322,98.685,0.296,46.7523541,-72.33258315,-6.23,-0.007,12.943,40.823,20.3,1,1,1
147.224,310.226,313.134,100.292,0.29,46.7523541,-72.33258894,-6.226,0.007,12.963,85.591,20.3,1,1,1
147.724,307.112,312.942,102.196,0.288,46.7523541,-72.33259492,-6.226,0.001,12.984,72.487,20.3,1,1,1
148.224,304.0,312.745,103.264,0.283,46.7523541,-72.33260116,-6.226,-0.0001997,13.004,19.739,20.3,1,1,1
148.724,300.888,312.535,102.157,0.269,46.7523541,-72.33260773,-6.222,0.007,13.024,5.006,20.3,1,1,1
149.224,297.776,312.692,102.56,0.266,46.7523541,-72.33261441,-6.224,-0.003,13.044,86.604,20.3,1,1,1
149.724,294.664,312.656,104.199,0.263,46.7523541,-72.33262067,-6.221,0.005,13.064,53.657,20.3,1,1,1
150.224,291.554,312.583,105.911,0.252,46.7523541,-72.33262694,-6.221,0.0001344,13.085,48.604,20.3,1,1,1
150.724,288.443,312.792,106.417,0.247,46.7523541,-72.33263322,-6.22,0.003,13.105,26.939,20.3,1,1,1
151.224,285.333,312.666,107.704,0.245,46.7523541,-72.33263916,-6.22,-3.584e-05,13.125,91.648,20.3,1,1,1
151.724,282.224,312.551,106.899,0.241,46.7523541,-72.33264514,-6.218,0.004,13.145,60.372,20.3,1,1,1
152.224,279.115,312.535,109.825,0.24,46.7523541,-72.33265151,-6.218,0.001,13.166,12.014,20.3,1,1,1
152.724,276.006,312.717,112.381,0.234,46.7523541,-72.33265807,-6.217,0.0004763,13.186,82.554,20.3,1,1,1
153.224,272.899,312.775,110.836,0.223,46.7523541,-72.33266505,-6.212,0.011,13.206,93.32,20.3,1,1,1
153.724,269.792,312.914,113.542,0.216,46.7523541,-72.33267221,-6.216,-0.009,13.226,55.661,20.3,1,1,1
154.224,266.685,312.847,113.842,0.206,46.7523541,-72.33267925,-6.213,0.006,13.246,35.327,20.3,1,1,1
154.724,263.578,312.731,116.197,0.201,46.7523541,-72.33268625,-6.213,-0.0001071,13.267,83.106,20.3,1,1,1
155.224,260.472,312.65,118.636,0.194,46.7523541,-72.3326932,-6.212,0.002,13.287,58.618,20.3,1,1,1
155.724,257.366,312.535,118.978,0.185,46.7523541,-72.33270031,-6.212,0.001,13.307,88.336,20.3,1,1,1
156.224,254.263,312.41,118.737,0.185,46.75235409,-72.33270672,-6.198,0.026,13.327,44.556,20.3,1,1,1
156.724,251.16,312.197,116.988,0.18,46.75235409,-72.33271222,-6.216,-0.036,13.347,14.628,20.3,1,1,1
157.224,248.055,312.337,118.111,0.177,46.75235409,-72.33271801,-6.201,0.03,13.367,37.037,20.3,1,1,1
157.724,244.952,312.476,117.371,0.174,46.75235409,-72.3327244,-6.211,-0.02,13.388,45.304,20.3,1,1,1
158.224,241.848,312.395,118.845,0.173,46.75235409,-72.33273075,-6.204,0.015,13.408,84.154,20.3,1,1,1
158.724,238.745,312.461,119.97,0.167,46.75235409,-72.33273671,-6.207,-0.007,13.428,6.019,20.3,1,1,1
159.224,235.643,312.227,121.171,0.161,46.75235409,-72.33274259,-6.204,0.006,13.448,74.037,20.3,1,1,1
159.724,232.541,312.221,119.787,0.158,46.75235409,-72.33274889,-6.203,0.003,13.468,15.153,20.3,1,1,1
160.224,229.439,312.154,119.593,0.154,46.75235409,-72.33275535,-6.203,-0.001,13.488,50.396,20.3,1,1,1
160.724,226.339,312.036,119.507,0.152,46.75235409,-72.33276129,-6.199,0.008,13.509,54.405,20.3,1,1,1
161.224,223.238,311.819,119.111,0.148,46.75235409,-72.33276703,-6.203,-0.006,13.529,11.943,20.3,1,1,1
161.724,220.138,311.655,119.85,0.145,46.75235409,-72.33277325,-6.198,0.01,13.549,27.06,20.3,1,1,1
162.224,217.039,311.55,121.305,0.141,46.75235409,-72.33277977,-6.201,-0.007,13.569,54.232,20.3,1,1,1
162.724,213.939,311.744,120.208,0.137,46.75235409,-72.33278605,-6.196,0.01,13.589,62.485,20.3,1,1,1
163.224,210.841,311.688,122.297,0.133,46.75235409,-72.33279233,-6.198,-0.003,13.609,61.271,20.3,1,1,1
163.724,207.743,311.593,122.766,0.128,46.75235409,-72.33279849,-6.194,0.007,13.63,12.009,20.3,1,1,1
164.224,204.646,311.546,124.924,0.128,46.75235409,-72.33280388,-6.194,-2.282e-06,13.65,88.75,20.3,1,1,1
164.724,201.549,311.478,126.824,0.123,46.75235409,-72.33280925,-6.193,0.003,13.67,18.363,20.3,1,1,1
165.224,198.452,311.452,128.971,0.119,46.75235409,-72.3328149,-6.195,-0.005,13.69,80.386,20.3,1,1,1
165.724,195.355,311.47,128.905,0.116,46.75235409,-72.33282035,-6.192,0.005,13.71,57.208,20.3,1,1,1
166.224,192.262,311.707,128.826,0.115,46.75235409,-72.33282652,-6.181,0.024,13.73,33.197,20.3,1,1,1
166.724,189.167,311.685,128.123,0.11,46.75235409,-72.3328334,-6.198,-0.035,13.75,6.374,20.3,1,1,1
167.224,186.071,311.768,127.248,0.105,46.75235409,-72.33284034,-6.186,0.024,13.77,19.384,20.3,1,1,1
167.724,182.977,311.617,128.438,0.102,46.75235409,-72.33284728,-6.192,-0.011,13.791,95.642,20.3,1,1,1
168.224,179.882,311.374,130.09,0.101,46.75235409,-72.33285412,-6.187,0.009,13.811,10.201,20.3,1,1,1
168.724,176.789,311.129,132.344,0.1,46.75235409,-72.33286055,-6.184,0.005,13.831,69.989,20.3,1,1,1
169.224,173.697,310.949,132.996,0.095,46.75235409,-72.33286706,-6.183,0.002,13.851,51.066,20.3,1,1,1
169.724,170.605,310.724,134.844,0.092,46.75235409,-72.33287396,-6.187,-0.008,13.871,67.246,20.3,1,1,1
170.224,167.512,310.927,136.699,0.091,46.75235409,-72.33288087,-6.184,0.008,13.891,27.336,20.3,1,1,1
170.724,164.421,310.851,136.892,0.087,46.75235409,-72.33288751,-6.182,0.003,13.911,97.323,20.3,1,1,1
171.224,161.329,311.059,137.506,0.085,46.75235409,-72.33289379,-6.184,-0.005,13.931,38.983,20.3,1,1,1
171.724,158.239,311.015,138.635,0.083,46.75235409,-72.3328996,-6.177,0.014,13.951,81.453,20.3,1,1,1
172.224,155.149,311.156,137.991,0.083,46.75235409,-72.33290496,-6.184,-0.014,13.971,80.476,20.3,1,1,1
172.724,152.058,311.289,140.933,0.08,46.75235408,-72.3329103,-6.179,0.011,13.992,45.418,20.3,1,1,1
173.224,148.969,311.274,142.075,0.08,46.75235408,-72.3329159,-6.178,9.372e-05,14.012,80.806,20.3,1,1,1
173.724,145.88,311.473,141.376,0.079,46.75235408,-72.33292211,-6.177,0.002,14.032,66.003,20.3,1,1,1
174.224,142.791,311.366,142.117,0.076,46.75235408,-72.33292842,-6.178,-0.0005154,14.052,28.808,20.3,1,1,1
174.724,139.702,311.588,143.181,0.072,46.75235408,-72.33293471,-6.176,0.003,14.072,27.151,20.3,1,1,1
175.224,136.614,311.476,145.112,0.072,46.75235408,-72.33294127,-6.176,0.001,14.092,49.708,20.3,1,1,1
175.724,133.527,311.262,147.028,0.069,46.75235408,-72.33294779,-6.174,0.003,14.112,15.237,20.3,1,1,1
176.224,130.44,311.43,147.559,0.069,46.75235408,-72.33295436,-6.173,0.002,14.132,51.903,20.3,1,1,1
176.724,127.353,311.3,149.638,0.067,46.75235408,-72.3329611,-6.173,-0.0005046,14.152,68.678,20.3,1,1,1
177.224,124.267,311.492,149.391,0.066,46.75235408,-72.33296763,-6.171,0.004,14.172,73.444,20.3,1,1,1
177.724,121.181,311.328,150.536,0.065,46.75235408,-72.33297391,-6.172,-0.0001907,14.192,18.533,20.3,1,1,1
178.224,118.097,311.204,150.825,0.062,46.75235408,-72.33298059,-6.165,0.013,14.212,32.807,20.3,1,1,1
178.724,115.014,311.326,150.586,0.061,46.75235408,-72.33298738,-6.169,-0.008,14.232,7.362,20.3,1,1,1
179.224,111.929,311.565,151.814,0.059,46.75235408,-72.33299387,-6.168,0.002,14.252,0.361,20.3,1,1,1
179.724,108.846,311.756,152.127,0.058,46.75235408,-72.3330008,-6.165,0.007,14.272,38.529,20.3,1,1,1
180.224,105.764,311.714,153.252,0.057,46.75235408,-72.3330076,-6.163,0.003,14.293,98.551,20.3,1,1,1
180.724,102.681,311.483,154.293,0.055,46.75235408,-72.3330138,-6.168,-0.009,14.313,89.804,20.3,1,1,1
181.224,99.598,311.729,152.709,0.055,46.75235408,-72.33301997,-6.164,0.008,14.333,42.964,20.3,1,1,1
181.724,96.516,311.706,152.762,0.053,46.75235408,-72.33302639,-6.164,-0.001,14.353,41.199,20.3,1,1,1
182.224,93.434,311.687,152.325,0.053,46.75235408,-72.33303267,-6.162,0.006,14.373,36.995,20.3,1,1,1
182.724,90.353,311.922,151.37,0.05,46.75235408,-72.33303867,-6.163,-0.003,14.393,35.742,20.3,1,1,1
183.224,87.273,312.002,153.464,0.049,46.75235408,-72.33304487,-6.16,0.007,14.413,73.399,20.3,1,1,1
183.724,84.192,311.991,151.997,0.048,46.75235408,-72.33305122,-6.161,-0.003,14.433,62.972,20.3,1,1,1
184.224,81.112,311.777,154.559,0.047,46.75235408,-72.33305733,-6.159,0.005,14.453,37.803,20.3,1,1,1
184.724,78.033,311.696,157.168,0.047,46.75235408,-72.33306338,-6.159,-0.0008275,14.473,44.844,20.3,1,1,1
185.224,74.954,311.765,155.237,0.045,46.75235408,-72.33306927,-6.157,0.005,14.493,56.542,20.3,1,1,1
185.724,71.876,311.591,154.391,0.045,46.75235408,-72.33307542,-6.153,0.007,14.513,19.385,20.3,1,1,1
186.224,68.799,311.354,154.014,0.045,46.75235408,-72.33308217,-6.158,-0.011,14.533,31.58,20.3,1,1,1
186.724,65.721,311.209,154.354,0.043,46.75235408,-72.33308943,-6.151,0.014,14.553,74.417,20.3,1,1,1
187.224,62.645,310.98,156.775,0.043,46.75235408,-72.33309688,-6.156,-0.01,14.573,26.662,20.3,1,1,1
187.724,59.569,310.808,157.77,0.042,46.75235408,-72.33310361,-6.147,0.018,14.593,69.781,20.3,1,1,1
188.224,56.493,310.559,160.165,0.04,46.75235408,-72.33310967,-6.156,-0.018,14.613,34.005,20.3,1,1,1
188.724,53.417,310.453,158.273,0.038,46.75235407,-72.33311576,-6.149,0.014,14.633,5.782,20.3,1,1,1
189.224,50.342,310.363,158.403,0.038,46.75235407,-72.33312207,-6.152,-0.006,14.653,80.746,20.3,1,1,1
189.724,47.266,310.423,160.212,0.037,46.75235407,-72.33312839,-6.149,0.007,14.673,73.666,20.3,1,1,1
190.224,44.192,310.57,162.976,0.035,46.75235407,-72.33313439,-6.148,0.002,14.693,79.256,20.3,1,1,1
190.724,41.118,310.516,161.938,0.035,46.75235407,-72.33313979,-6.147,0.002,14.713,68.094,20.3,1,1,1
191.224,38.046,310.314,160.916,0.033,46.75235407,-72.33314543,-6.142,0.01,14.733,47.338,20.3,1,1,1
191.724,34.973,310.526,162.483,0.032,46.75235407,-72.33315166,-6.149,-0.015,14.753,85.578,20.3,1,1,1
192.224,31.904,310.77,161.7,0.032,46.75235407,-72.33315878,-6.129,0.041,14.773,5.149,20.3,1,1,1
193.201,25.904,311.413,158.578,0.029,46.75235407,-72.33317308,-6.137,0.029,14.812,43.36,20.3,1,1,1
193.701,22.833,311.448,156.804,0.028,46.75235407,-72.33317983,-6.146,-0.019,14.832,97.848,20.3,1,1,1
194.201,19.762,311.505,159.412,0.027,46.75235407,-72.33318681,-6.14,0.013,14.852,81.45,20.3,1,1,1
194.701,16.691,311.487,162.25,0.026,46.75235407,-72.33319366,-6.142,-0.004,14.872,16.262,20.3,1,1,1
195.201,13.621,311.295,163.651,0.026,46.75235407,-72.33320035,-6.14,0.004,14.892,16.074,20.3,1,1,1
195.701,10.551,311.507,163.908,0.024,46.75235407,-72.33320687,-6.139,0.002,14.911,2.114,20.3,1,1,1
196.201,7.482,311.511,166.651,0.023,46.75235407,-72.33321296,-6.138,0.002,14.931,60.463,20.3,1,1,1
196.701,4.414,311.325,167.03,0.022,46.75235407,-72.33321905,-6.137,0.002,14.951,55.11,20.3,1,1,1
197.201,1.345,311.566,165.717,0.022,46.75235407,-72.3332253,-6.137,-0.0002216,14.971,58.076,20.3,1,1,1
